Severity,Start_Time,End_Time,Start_Lat,Start_Lng,Distance(mi),City,County,State,Timezone,Airport_Code,Temperature(F),Wind_Chill(F),Humidity(%),Pressure(in),Visibility(mi),Wind_Direction,Wind_Speed(mph),Precipitation(in),Weather_Condition,Amenity,Bump,Crossing,Give_Way,Junction,No_Exit,Railway,Roundabout,Station,Stop,Traffic_Calming,Traffic_Signal,Turning_Loop,Sunrise_Sunset,Clearance_Time(hr),Clearance_Class
2,2022-09-08 20:54:00,2022-09-09 23:06:21,32.456486,-93.774536,0.501,Shreveport,Caddo,LA,US/Central,KSHV,78.0,78.0,62.0,29.61,10.0,CALM,0.0,0.0,Fair,False,False,False,False,False,False,False,False,False,False,False,False,False,Night,26.205833333333334,Very Long
2,2021-05-22 00:40:30,2021-05-25 09:56:58,36.804693,-76.189728,0.253,Virginia Beach,Virginia Beach,VA,US/Eastern,KORF,54.0,54.0,90.0,30.4,7.0,CALM,0.0,0.0,Fair,False,False,True,False,False,False,False,False,False,False,False,True,False,Night,81.27444444444444,Very Long
2,2022-01-21 14:25:00,2023-01-21 16:10:00,29.895740747309222,-90.09002566294627,1.154,Marrero,Jefferson,LA,US/Pacific,KAUD,40.0,33.0,58.0,30.28,10.0,N,10.0,0.0,Mostly Cloudy,False,False,False,False,True,False,False,False,False,False,False,False,False,Day,8761.75,Very Long
2,2020-11-27 00:44:00,2020-11-28 04:49:48,32.456459,-93.779709,0.016,Shreveport,Caddo,LA,US/Central,KSHV,62.0,62.0,75.0,29.8,10.0,SSE,8.0,0.0,Cloudy,False,False,False,False,False,False,False,False,False,False,False,False,False,Night,28.096666666666668,Very Long
2,2020-09-21 12:07:00,2020-09-22 15:22:36,26.966433,-82.255414,0.057,Port Charlotte,Charlotte,FL,US/Eastern,KPGD,84.0,84.0,69.0,29.99,10.0,E,18.0,0.0,Cloudy,False,False,False,False,False,False,False,False,False,False,False,False,False,Day,27.26,Very Long
2,2022-09-24 23:29:18,2022-09-26 00:18:40,36.231607,-95.975564,0.198,Tulsa,Tulsa,OK,US/Central,KTUL,76.0,76.0,69.0,29.2,10.0,S,5.0,0.0,Partly Cloudy,False,False,False,False,False,False,False,False,False,True,False,False,False,Night,24.822777777777777,Very Long
4,2020-12-04 16:45:30,2020-12-17 10:55:14,39.933497,-75.252421,0.05,Lansdowne,Delaware,PA,US/Eastern,KPHL,45.0,45.0,90.0,29.97,8.0,E,3.0,0.03,Light Rain,False,False,False,False,False,False,False,False,False,False,False,False,False,Night,306.1622222222222,Very Long
2,2022-01-13 16:03:00,2023-01-13 17:48:00,30.480805635306925,-90.3347504134639,2.507,Hammond,Tangipahoa,LA,US/Central,KHDC,66.0,66.0,35.0,29.95,10.0,WNW,9.0,0.0,Fair,False,False,False,False,False,False,False,False,False,False,False,False,False,Day,8761.75,Very Long
4,2020-11-11 13:53:00,2021-01-01 07:59:00,39.07618,-84.519503,1.276,Covington,Kenton,KY,US/Eastern,KLUK,60.0,60.0,55.0,29.48,10.0,NNW,7.0,0.0,Mostly Cloudy,False,False,True,False,False,False,False,False,False,True,False,False,False,Day,1218.1,Very Long
2,2021-09-20 19:28:00,2021-09-21 20:21:02,39.96096,-78.840864,0.713,Berlin,Somerset,PA,US/Eastern,KCBE,72.0,72.0,69.0,29.46,7.0,CALM,0.0,0.0,Cloudy,False,False,False,False,False,False,False,False,False,False,False,False,False,Night,24.88388888888889,Very Long
4,2020-09-09 14:30:00,2020-09-14 06:59:00,45.28103,-122.343734,1.685,Estacada,Clackamas,OR,US/Pacific,KTTD,90.0,90.0,8.0,29.84,10.0,E,17.0,0.0,Fair,False,False,False,False,False,False,False,False,False,False,False,False,False,Day,112.48333333333333,Very Long
2,2021-08-29 21:39:00,2021-08-30 22:29:48,35.152694,-114.089731,0.388,Kingman,Mohave,AZ,US/Mountain,KIGM,86.0,86.0,26.0,26.43,5.0,SE,29.0,0.0,Fair / Windy,False,False,False,False,False,False,False,False,False,False,False,False,False,Night,24.846666666666668,Very Long
2,2021-09-25 02:46:00,2022-09-25 04:31:00,30.158006,-89.849385,2.229,New Orleans,Orleans,LA,US/Central,KNEW,69.0,69.0,65.0,30.06,10.0,CALM,0.0,0.0,Fair,False,False,False,False,False,False,False,False,False,False,False,False,False,Night,8761.75,Very Long
2,2022-01-18 10:30:22,2022-01-19 12:31:43,45.77931046464072,-108.15242886491708,3.768,Huntley,Yellowstone,MT,US/Mountain,KBIL,27.0,15.0,78.0,26.28,9.0,ENE,16.0,0.0,Light Snow,False,False,False,False,False,False,False,False,False,False,False,False,False,Day,26.0225,Very Long
2,2021-01-12 18:36:30,2021-01-14 18:10:00,45.214209,-122.974379,0.073,Saint Paul,Marion,OR,US/Pacific,KMMV,58.0,58.0,90.0,29.54,6.0,S,15.0,0.13,Rain,False,False,False,False,False,False,False,False,False,False,False,False,False,Night,47.55833333333333,Very Long
2,2021-02-12 09:49:00,2021-02-15 11:44:20,30.53447700000001,-87.326327,0.014,Pensacola,Escambia,FL,US/Central,KPNS,56.0,56.0,87.0,29.87,10.0,N,12.0,0.0,Cloudy,False,False,False,False,False,False,False,False,False,False,False,False,False,Day,73.92222222222222,Very Long
3,2021-09-02 04:50:03,2021-09-03 07:47:00,40.311062,-74.25140400000002,1.6100000143051147,Marlboro,Monmouth,NJ,US/Eastern,KBLM,64.0,64.0,90.0,29.5,10.0,NW,17.0,0.0,Cloudy,False,False,False,False,False,False,False,False,False,False,False,False,False,Night,26.949166666666667,Very Long
2,2020-12-12 08:01:00,2020-12-13 09:56:49,28.088039,-82.453132,0.051,Tampa,Hillsborough,FL,US/Eastern,KVDF,61.0,61.0,82.0,30.13,10.0,CALM,0.0,0.0,Cloudy,False,False,False,False,False,False,False,False,False,False,False,False,False,Day,25.93027777777778,Very Long
2,2022-02-20 16:02:00,2023-02-20 17:47:00,30.235881,-93.215461,0.078,Lake Charles,Calcasieu,LA,US/Central,KCWF,66.0,66.0,64.0,30.13,10.0,SSE,10.0,0.0,Mostly Cloudy,False,False,False,False,False,False,False,False,False,False,False,False,False,Day,8761.75,Very Long
2,2021-12-15 21:25:09,2021-12-17 16:00:00,44.81251358964533,-117.33330845776877,4.982,Richland,Baker,OR,US/Pacific,KBKE,27.0,15.0,89.0,26.37,9.0,E,16.0,0.0,Cloudy,False,False,False,False,False,False,False,False,False,False,False,False,False,Night,42.58083333333333,Very Long
2,2022-05-01 18:20:00,2022-05-02 19:36:22,32.474606,-93.784424,0.063,Shreveport,Caddo,LA,US/Central,KSHV,85.0,85.0,40.0,29.75,10.0,NE,7.0,0.0,Fair,False,False,False,False,False,False,False,False,False,False,False,False,False,Day,25.272777777777776,Very Long
2,2021-06-24 00:00:00,2021-06-27 23:59:00,25.8731,-80.12395500000002,0.203,Miami Beach,Miami-Dade,FL,US/Eastern,KOPF,80.0,80.0,71.0,30.1,10.0,NE,5.0,0.0,Fair,False,False,False,False,False,False,False,False,False,False,False,False,False,Night,95.98333333333333,Very Long
4,2020-12-23 22:23:27,2020-12-24 23:08:33,41.177412,-97.593388,0.72,Osceola,Polk,NE,US/Central,KJYR,18.0,4.0,79.0,28.29,10.0,NW,14.0,0.0,Mostly Cloudy,False,False,False,False,False,False,False,False,False,False,False,False,False,Night,24.751666666666665,Very Long
2,2021-06-10 10:01:00,2022-06-10 11:46:00,30.40267825112151,-91.50048136667488,0.315,Maringouin,Iberville,LA,US/Central,KHZR,81.0,81.0,84.0,30.01,10.0,WSW,7.0,0.0,Mostly Cloudy,False,False,False,False,True,False,False,False,False,False,False,False,False,Day,8761.75,Very Long
2,2022-08-11 08:25:28,2022-08-12 09:16:13,36.15038300000001,-95.986668,0.071,Tulsa,Tulsa,OK,US/Central,KRVS,78.0,78.0,68.0,29.41,10.0,NNE,5.0,0.0,Fair,False,False,True,False,False,False,False,False,False,False,False,True,False,Day,24.845833333333335,Very Long
2,2021-02-02 15:58:00,2022-02-02 17:43:00,30.100082,-90.900503,1.671,Convent,St James,LA,US/Central,KL38,56.0,56.0,37.0,30.11,10.0,WNW,9.0,0.0,Fair,False,False,False,False,False,False,False,False,False,False,False,False,False,Day,8761.75,Very Long
2,2021-02-11 15:02:55,2021-02-12 21:23:49,45.740046,-120.623372,6.659,Arlington,Gilliam,OR,US/Pacific,KHRI,28.0,18.0,53.0,29.51,10.0,N,12.0,0.0,Cloudy,False,False,False,False,False,False,False,False,False,False,False,False,False,Day,30.348333333333333,Very Long
2,2022-02-16 15:56:48,2022-02-17 16:50:28,45.15418410279678,-107.36982464739144,1.758,Lodge Grass,Big Horn,MT,US/Mountain,KSHR,21.0,7.0,78.0,25.98,2.0,WNW,17.0,0.02,Light Snow,False,False,False,False,False,False,False,False,False,False,False,False,False,Day,24.894444444444446,Very Long
2,2023-01-27 19:41:10,2023-02-03 23:59:00,40.720846,-74.00715500000003,0.011,New York,New York,NY,US/Eastern,KJRB,38.0,33.0,48.0,30.07,10.0,SW,7.0,0.0,Fair,False,False,False,False,False,False,False,False,False,False,False,False,False,Night,172.29722222222222,Very Long
2,2021-01-08 04:14:00,2021-01-09 07:18:05,32.385985999999995,-93.817139,0.032,Shreveport,Caddo,LA,US/Central,KSHV,40.0,36.0,86.0,30.02,10.0,NNW,6.0,0.0,Fair,False,False,False,False,False,False,False,False,False,False,False,False,False,Night,27.068055555555556,Very Long
2,2020-10-19 22:57:00,2020-10-21 09:00:00,35.25327,-82.217742,5.995,Columbus,Polk,NC,US/Eastern,KFQD,52.0,52.0,100.0,29.1,10.0,CALM,0.0,0.0,Fair,False,False,False,False,False,False,False,False,False,False,False,False,False,Night,34.05,Very Long
2,2022-06-27 17:04:07,2022-06-28 17:49:53,36.133522,-95.912977,0.011,Tulsa,Tulsa,OK,US/Central,KTUL,84.0,84.0,33.0,29.49,10.0,ENE,8.0,0.0,Mostly Cloudy,False,False,False,False,False,False,False,False,True,True,False,False,False,Day,24.762777777777778,Very Long
2,2021-01-07 08:02:00,2021-01-08 09:57:37,25.969657,-80.165319,1.293,Miami,Miami-Dade,FL,US/Eastern,KHWO,58.0,58.0,97.0,30.09,10.0,CALM,0.0,0.0,Fair,False,False,False,False,False,False,False,False,False,False,False,False,False,Day,25.926944444444445,Very Long
2,2022-12-09 17:44:59,2022-12-10 19:34:12,36.046504,-96.013925,0.126,Tulsa,Tulsa,OK,US/Central,KRVS,48.0,48.0,68.0,29.42,10.0,NNE,3.0,0.0,Fair,False,False,False,False,False,False,False,False,False,False,False,False,False,Night,25.82027777777778,Very Long
2,2021-02-12 18:03:56,2021-02-19 15:45:00,45.05324721314882,-122.71309018076558,0.034,Silverton,Marion,OR,US/Pacific,KSLE,29.0,21.0,92.0,29.66,2.0,NNW,8.0,0.0,Wintry Mix,False,False,False,False,False,False,False,False,False,True,False,True,False,Night,165.68444444444444,Very Long
2,2021-12-04 00:53:00,2021-12-05 01:11:33,34.29758,-118.24345,1.141,Tujunga,Los Angeles,CA,US/Pacific,KBUR,54.0,54.0,80.0,29.28,3.0,N,8.0,0.0,Haze,False,False,False,False,False,False,False,False,False,True,False,False,False,Night,24.309166666666666,Very Long
4,2021-10-11 18:07:58,2021-10-12 18:56:54,44.866443,-111.557204,0.521,Cameron,Madison,MT,US/Mountain,KDLN,29.0,15.0,89.0,24.67,10.0,NNE,25.0,0.0,Cloudy / Windy,False,False,False,False,False,False,False,False,False,False,False,False,False,Day,24.815555555555555,Very Long
2,2022-12-30 00:01:00,2022-12-31 00:44:00,34.409832,-117.39338899999998,1.077,Hesperia,San Bernardino,CA,US/Pacific,KVCV,50.0,50.0,76.0,27.04,10.0,SW,8.0,0.0,Fair,False,False,False,False,False,False,False,False,False,False,False,False,False,Night,24.716666666666665,Very Long
2,2021-12-06 16:17:00,2021-12-07 18:06:38,32.44456887229708,-93.95517468407652,0.5,Greenwood,Caddo,LA,US/Central,KSHV,63.0,63.0,28.0,29.94,10.0,NNE,12.0,0.0,Fair,False,False,False,False,False,False,False,False,False,False,False,False,False,Day,25.827222222222222,Very Long
2,2021-04-14 13:54:00,2021-04-17 12:43:18,25.810399,-80.15480500000002,1.192,Miami Beach,Miami-Dade,FL,US/Eastern,KMIA,82.0,82.0,52.0,30.08,10.0,E,12.0,0.0,Fair,False,False,False,False,False,False,False,False,False,False,False,False,False,Day,70.82166666666667,Very Long
4,2021-08-02 16:59:05,2021-08-03 19:16:40,38.42780470829759,-95.73328614189272,0.459,Lebo,Coffey,KS,US/Central,KUKL,84.0,84.0,37.0,28.82,9.0,N,7.0,0.0,Fair,False,False,False,False,True,False,False,False,False,False,False,False,False,Day,26.293055555555554,Very Long
4,2020-09-14 15:00:00,2020-09-16 06:55:00,45.283355,-122.331934,0.1369999999999999,Estacada,Clackamas,OR,US/Pacific,KTTD,70.0,70.0,59.0,29.89,0.25,CALM,0.0,0.0,Smoke,False,False,False,False,False,False,False,False,False,False,False,False,False,Day,39.916666666666664,Very Long
2,2020-11-26 08:07:00,2020-11-27 11:02:09,28.522193,-81.285706,0.066,Orlando,Orange,FL,US/Eastern,KORL,67.0,67.0,90.0,30.06,10.0,CALM,0.0,0.0,Fair,False,False,False,False,False,False,False,False,False,False,False,False,False,Day,26.919166666666666,Very Long
2,2021-06-05 05:35:00,2021-06-06 06:50:39,29.989975,-82.36368399999998,0.472,Lake Butler,Union,FL,US/Eastern,KLCQ,68.0,68.0,100.0,29.92,9.0,CALM,0.0,0.0,Fair,False,False,False,False,False,False,False,False,False,False,False,False,False,Night,25.260833333333334,Very Long
4,2020-09-09 19:41:30,2020-09-10 20:09:05,43.258287,-122.174591,6.562,Idleyld Park,Douglas,OR,US/Pacific,KRBG,75.0,75.0,24.0,29.29,1.0,CALM,0.0,0.0,Haze,False,False,False,False,False,False,False,False,False,False,False,False,False,Night,24.459722222222222,Very Long
2,2022-06-07 10:55:58,2022-06-08 12:17:07,45.75225800000001,-108.509661,0.818,Billings,Yellowstone,MT,US/Mountain,KBIL,66.0,66.0,42.0,26.29,10.0,NW,8.0,0.0,Mostly Cloudy,False,False,False,False,False,False,False,False,False,False,False,False,False,Day,25.3525,Very Long
2,2022-04-13 08:48:29,2022-04-14 09:53:42,46.32272601105535,-112.06851839965788,4.367,Jefferson City,Jefferson,MT,US/Mountain,KHLN,16.0,16.0,68.0,26.14,5.0,W,3.0,0.0,Cloudy,False,False,False,False,False,False,False,False,False,False,False,False,False,Day,25.086944444444445,Very Long
2,2021-02-20 21:29:00,2021-02-21 23:55:18,32.42559,-93.7631,0.125,Shreveport,Caddo,LA,US/Central,KSHV,39.0,33.0,76.0,30.06,10.0,ESE,9.0,0.0,Fair,False,False,False,False,False,False,False,False,False,False,False,False,False,Night,26.438333333333333,Very Long
4,2019-08-03 06:17:07,2019-10-18 00:19:00,41.010691,-96.216356,2.4090000000000003,Springfield,Sarpy,NE,US/Central,KMLE,72.0,72.0,81.0,28.96,10.0,CALM,0.0,0.0,Cloudy,False,False,False,False,False,False,False,False,False,False,False,False,False,Night,1818.0313888888888,Very Long
2,2022-08-21 04:27:00,2022-08-22 05:27:42,34.565659000000004,-112.373735,0.129,Prescott,Yavapai,AZ,US/Mountain,KPRC,67.0,67.0,70.0,25.06,10.0,NE,3.0,0.0,Fair,False,False,False,False,False,False,False,False,False,True,False,False,False,Night,25.011666666666667,Very Long
2,2021-12-05 14:17:00,2021-12-06 15:33:18,32.441914000000004,-93.76355,0.028,Shreveport,Caddo,LA,US/Central,KSHV,76.0,76.0,62.0,29.72,10.0,S,10.0,0.0,Cloudy,False,False,False,False,False,False,False,False,False,False,False,False,False,Day,25.27166666666667,Very Long
2,2020-12-01 00:56:54,2020-12-02 03:30:00,43.790677,-117.858999,3.612,Juntura,Malheur,OR,US/Pacific,KBNO,21.0,12.0,85.0,26.1,10.0,NNW,7.0,0.0,Fair,False,False,False,False,False,False,False,False,False,False,False,False,False,Night,26.551666666666666,Very Long
2,2022-04-25 01:43:00,2022-04-26 02:58:05,28.580357,-81.207646,0.031,Orlando,Orange,FL,US/Eastern,KORL,70.0,70.0,84.0,30.01,10.0,E,6.0,0.0,Fair,False,False,False,False,False,False,False,False,True,False,False,False,False,Night,25.25138888888889,Very Long
2,2022-11-23 17:02:12,2022-11-24 17:47:16,41.646981,-108.65941399999998,0.8759999999999999,Rock Springs,Sweetwater,WY,US/Mountain,KRKS,31.0,23.0,69.0,23.47,10.0,WNW,9.0,0.0,Cloudy,False,False,False,False,False,False,False,False,False,False,False,False,False,Night,24.75111111111111,Very Long
2,2021-03-14 17:44:00,2021-03-15 22:21:00,35.86440682394092,-87.90305972057388,4.37,Waverly,Humphreys,TN,US/Central,KCKV,57.0,57.0,31.0,29.48,10.0,ENE,16.0,0.0,Cloudy,False,False,False,False,True,False,False,False,False,False,False,False,False,Day,28.616666666666667,Very Long
2,2020-12-23 17:23:21,2020-12-24 18:08:25,41.120871,-100.882891,5.59,North Platte,Lincoln,NE,US/Central,KLBF,24.0,9.0,62.0,27.21,10.0,NNW,21.0,0.0,Fair / Windy,False,False,False,False,False,False,False,False,False,False,False,False,False,Night,24.75111111111111,Very Long
2,2021-07-12 18:50:00,2021-07-13 19:39:57,40.227002,-79.610584,0.662,New Stanton,Westmoreland,PA,US/Eastern,KLBE,86.0,86.0,58.0,28.87,15.0,SW,9.0,0.0,Fair,False,False,False,False,False,False,False,False,False,False,False,False,False,Day,24.8325,Very Long
2,2022-12-29 22:47:00,2022-12-31 01:19:41,32.26091,-93.967308,0.452,Keithville,Caddo,LA,US/Central,KSHV,63.0,63.0,93.0,29.79,4.0,SE,6.0,0.16,Heavy Rain,False,False,False,False,False,False,False,False,False,False,False,False,False,Night,26.544722222222223,Very Long
2,2021-05-01 17:18:00,2022-05-01 19:03:00,30.4024422167282,-91.5003955359864,3.806,Grosse Tete,Iberville,LA,US/Central,KBTR,76.0,76.0,64.0,29.88,10.0,E,10.0,0.0,Fair,False,False,False,False,False,False,False,False,False,False,False,False,False,Day,8761.75,Very Long
2,2022-11-17 08:54:44,2022-11-18 10:44:44,36.119947,-95.891033,0.061,Tulsa,Tulsa,OK,US/Central,KTUL,37.0,33.0,57.0,29.68,10.0,VAR,5.0,0.0,Fair,False,False,False,False,False,False,False,False,False,False,False,False,False,Day,25.833333333333332,Very Long
2,2020-11-12 09:49:00,2020-11-13 21:40:30,33.98768,-117.363041,0.6920000000000001,Riverside,Riverside,CA,US/Pacific,KRAL,60.0,60.0,39.0,29.2,10.0,CALM,0.0,0.0,Fair,False,False,False,False,False,False,False,False,False,False,False,False,False,Day,35.858333333333334,Very Long
2,2021-09-13 15:22:00,2022-09-13 17:07:00,30.218893289421946,-93.2950294013343,2.135,Westlake,Calcasieu,LA,US/Central,KCWF,82.0,82.0,79.0,30.01,10.0,SE,9.0,0.0,Mostly Cloudy,False,False,False,False,False,False,False,False,False,False,False,False,False,Day,8761.75,Very Long
2,2022-09-01 11:46:00,2022-09-02 15:10:03,37.765236,-122.404898,0.031,San Francisco,San Francisco,CA,US/Pacific,KSFO,69.0,69.0,58.0,29.87,10.0,NW,13.0,0.0,Fair,False,False,False,False,False,False,False,False,False,False,False,False,False,Day,27.400833333333335,Very Long
4,2022-03-10 12:02:00,2023-03-10 13:47:00,30.206340551232305,-90.94320416407136,0.6829999999999999,Gonzales,Ascension,LA,US/Central,KL38,67.0,67.0,49.0,29.93,10.0,NE,8.0,0.0,Fair,False,False,False,False,False,False,False,False,False,False,False,False,False,Day,8761.75,Very Long
2,2020-11-04 19:02:00,2020-11-05 19:50:27,34.346684,-110.70675,1.192,Heber,Navajo,AZ,US/Mountain,KSOW,55.0,55.0,38.0,23.99,10.0,CALM,0.0,0.0,Fair,False,False,False,False,False,False,False,False,False,False,False,False,False,Night,24.8075,Very Long
2,2021-09-25 01:12:24,2021-09-26 09:07:39,34.702116,-80.684081,0.046,Lancaster,Lancaster,SC,US/Eastern,KLKR,52.0,52.0,94.0,29.58,10.0,CALM,0.0,0.0,Mostly Cloudy,False,False,False,False,False,False,False,False,False,False,False,False,False,Night,31.920833333333334,Very Long
2,2021-03-05 00:02:00,2021-03-06 02:37:26,25.781571,-80.35316800000003,0.131,Miami,Miami-Dade,FL,US/Eastern,KMIA,64.0,64.0,84.0,29.95,10.0,WNW,5.0,0.0,Mostly Cloudy,False,False,False,False,False,False,False,False,False,False,False,False,False,Night,26.590555555555557,Very Long
2,2020-11-10 01:02:00,2020-11-11 02:18:07,32.492686,-93.74604,0.081,Shreveport,Caddo,LA,US/Central,KDTN,72.0,72.0,81.0,29.73,10.0,SSE,12.0,0.0,Cloudy,False,False,False,False,False,False,False,False,False,False,False,True,False,Night,25.26861111111111,Very Long
2,2022-03-07 22:29:00,2023-03-08 00:14:00,30.24528622612836,-93.1564986701338,1.381,Lake Charles,Calcasieu,LA,US/Central,KCWF,51.0,51.0,75.0,30.1,10.0,N,13.0,0.0,Fair,False,False,False,False,False,False,False,False,False,False,False,False,False,Night,8761.75,Very Long
2,2022-08-29 20:23:47,2022-08-30 21:12:09,36.073388,-95.975772,0.07,Tulsa,Tulsa,OK,US/Central,KRVS,75.0,75.0,90.0,29.23,10.0,SE,6.0,0.0,Fair,False,False,True,False,False,False,False,False,False,True,False,False,False,Night,24.80611111111111,Very Long
2,2021-07-31 12:58:00,2021-08-01 15:10:54,32.437046,-93.860352,0.126,Shreveport,Caddo,LA,US/Central,KSHV,95.0,95.0,54.0,29.84,10.0,WSW,8.0,0.0,Partly Cloudy,False,False,False,False,False,False,False,False,False,False,False,False,False,Day,26.215,Very Long
2,2020-02-14 03:16:49,2020-03-13 04:46:46,45.50221,-118.42226,3.491,Pendleton,Umatilla,OR,US/Pacific,KPDT,39.0,30.0,67.0,28.39,10.0,WSW,17.0,0.0,Fair,False,False,False,False,False,False,False,False,False,False,False,False,False,Night,673.4991666666666,Very Long
2,2022-08-24 08:10:10,2022-09-06 07:14:42,45.383059,-94.008075,1.465,Clearwater,Wright,MN,US/Central,KSTC,69.0,69.0,78.0,28.87,10.0,SE,6.0,0.0,Fair,False,False,False,False,False,False,False,False,False,False,False,False,False,Day,311.0755555555556,Very Long
2,2021-02-08 01:49:00,2021-02-09 06:37:56,32.486243,-93.724208,0.101,Shreveport,Caddo,LA,US/Central,KDTN,35.0,35.0,96.0,29.88,10.0,CALM,0.0,0.0,Fair,False,False,False,False,False,False,False,False,False,False,False,False,False,Night,28.815555555555555,Very Long
2,2022-05-18 04:01:00,2022-05-19 06:45:00,33.909756,-84.290531,0.036,Atlanta,Dekalb,GA,US/Eastern,KPDK,56.0,56.0,93.0,28.95,10.0,CALM,0.0,0.0,Fair,False,False,False,False,False,False,False,False,False,False,False,False,False,Night,26.733333333333334,Very Long
2,2020-12-29 12:45:00,2021-12-29 14:30:00,32.562264,-93.154953,5.665,Gibsland,Bienville,LA,US/Central,KMNE,67.0,67.0,61.0,29.87,10.0,SSE,8.0,0.0,Fair,False,False,False,False,False,False,False,False,False,False,False,False,False,Day,8761.75,Very Long
2,2022-07-15 14:38:22,2022-07-16 15:50:39,30.43876,-88.5484,0.8690000000000001,Moss Point,Jackson,MS,US/Central,KPQL,82.0,82.0,88.0,30.07,10.0,ESE,8.0,0.02,Thunder in the Vicinity,False,False,False,False,False,False,False,False,False,False,False,False,False,Day,25.204722222222223,Very Long
2,2021-07-07 11:43:00,2022-07-07 13:30:00,29.579366,-90.723683,0.023,Houma,Terrebonne,LA,US/Central,KHUM,84.0,84.0,74.0,29.98,7.0,CALM,0.0,0.0,Partly Cloudy,False,False,False,False,False,False,False,False,False,False,False,False,False,Day,8761.783333333333,Very Long
2,2021-04-19 03:28:00,2021-04-23 12:27:03,33.984759000000004,-117.365246,0.929,Riverside,Riverside,CA,US/Pacific,KRAL,53.0,53.0,50.0,29.15,10.0,ENE,3.0,0.0,Fair,False,False,False,False,False,False,False,False,False,False,False,False,False,Night,104.98416666666667,Very Long
2,2022-02-09 16:36:56,2022-02-10 18:26:42,36.17691636068261,-95.97427725746168,0.105,Tulsa,Tulsa,OK,US/Central,KTUL,64.0,64.0,19.0,29.27,10.0,NW,9.0,0.0,Fair,False,False,True,True,False,False,False,False,False,True,False,False,False,Day,25.829444444444444,Very Long
2,2022-09-18 19:38:13,2022-09-19 20:31:57,41.932367,-107.320563,0.593,Rawlins,Carbon,WY,US/Mountain,KRWL,67.0,67.0,15.0,23.4,10.0,SW,13.0,0.0,Fair,False,False,False,False,False,False,False,False,False,False,False,False,False,Night,24.895555555555557,Very Long
2,2021-10-03 07:52:43,2021-10-04 16:37:00,42.875782,-117.50732,0.068,Jordan Valley,Malheur,OR,US/Mountain,KMAN,46.0,46.0,57.0,27.5,10.0,CALM,0.0,0.0,Fair,False,False,False,False,False,False,False,False,False,False,False,False,False,Day,32.738055555555555,Very Long
2,2021-05-12 01:18:00,2021-05-14 17:43:51,40.007985,-75.212172,1.031,Bala Cynwyd,Montgomery,PA,US/Eastern,KLOM,49.0,46.0,41.0,29.84,10.0,WNW,7.0,0.0,Fair,False,False,False,False,False,False,False,False,False,False,False,False,False,Night,64.43083333333334,Very Long
2,2021-12-01 16:36:00,2022-12-01 18:21:00,31.265249,-92.454144,0.052,Alexandria,Rapides,LA,US/Central,KAEX,72.0,72.0,53.0,29.96,10.0,SW,5.0,0.0,Fair,False,False,False,False,False,False,False,False,False,False,False,False,False,Day,8761.75,Very Long
2,2022-04-02 09:52:16,2022-04-03 11:51:42,45.646830796977774,-110.88901162094643,2.61,Bozeman,Gallatin,MT,US/Mountain,KBZN,37.0,32.0,59.0,25.39,10.0,SE,6.0,0.0,Fair,False,False,False,False,False,False,False,False,False,False,False,False,False,Day,25.990555555555556,Very Long
2,2020-12-22 12:29:00,2020-12-24 05:40:59,25.929874,-80.18833000000002,0.116,North Miami Beach,Miami-Dade,FL,US/Eastern,KHWO,77.0,77.0,52.0,30.17,10.0,NE,14.0,0.0,Mostly Cloudy,False,False,False,False,False,False,False,False,False,False,False,False,False,Day,41.19972222222222,Very Long
2,2020-12-26 08:06:00,2020-12-27 10:41:27,25.7846,-80.23616899999998,0.464,Miami,Miami-Dade,FL,US/Eastern,KMIA,48.0,44.0,68.0,30.18,10.0,N,8.0,0.0,Fair,False,False,False,False,True,False,False,False,False,False,False,False,False,Day,26.590833333333332,Very Long
2,2021-05-07 18:41:00,2022-05-07 20:26:00,29.895740747309222,-90.09002566294627,1.154,Marrero,Jefferson,LA,US/Pacific,KAUD,65.0,65.0,93.0,30.07,10.0,CALM,0.0,0.0,Fair,False,False,False,False,True,False,False,False,False,False,False,False,False,Day,8761.75,Very Long
3,2021-12-31 02:22:33,2022-01-03 04:42:00,39.935131,-105.125633,0.2700000107288361,Broomfield,Broomfield,CO,US/Mountain,KBJC,34.0,34.0,38.0,23.9,10.0,CALM,0.0,0.0,Fair,False,False,False,False,False,False,False,False,False,False,False,False,False,Night,74.32416666666667,Very Long
2,2022-03-31 21:46:00,2022-04-01 23:01:00,34.234885,-84.44402,0.019,Canton,Cherokee,GA,US/Eastern,KCNI,55.0,55.0,54.0,28.54,10.0,WNW,5.0,0.0,Partly Cloudy,False,False,False,False,False,False,False,False,False,False,False,True,False,Night,25.25,Very Long
2,2022-04-09 16:52:00,2022-04-10 19:11:13,33.920069,-118.0239,0.049,Whittier,Los Angeles,CA,US/Pacific,KFUL,74.0,74.0,55.0,29.65,10.0,S,9.0,0.0,Fair,False,False,False,False,False,False,False,False,False,False,False,False,False,Day,26.32027777777778,Very Long
2,2022-01-09 16:06:00,2023-01-09 17:51:00,30.448412,-91.249307,1.09,Port Allen,West Baton Rouge,LA,US/Central,KBTR,66.0,66.0,93.0,30.07,3.0,NNE,6.0,0.13,Light Rain with Thunder,False,False,False,False,False,False,False,False,False,False,False,False,False,Day,8761.75,Very Long
2,2022-02-16 12:19:02,2022-02-17 13:17:24,45.69395184495118,-109.41338896699231,2.408,Columbus,Stillwater,MT,US/Mountain,KBIL,18.0,2.0,71.0,26.37,2.0,NNE,20.0,0.0,Light Snow,False,False,False,False,False,False,False,False,False,False,False,False,False,Day,24.97277777777778,Very Long
2,2020-11-05 23:02:00,2020-11-07 01:43:35,32.441946,-93.754619,0.006,Shreveport,Caddo,LA,US/Central,KSHV,57.0,57.0,83.0,30.01,10.0,CALM,0.0,0.0,Fair,False,False,False,False,False,False,False,False,False,False,False,True,False,Night,26.693055555555556,Very Long
2,2022-04-30 04:31:44,2022-05-01 05:19:13,36.173947,-95.904568,0.029,Tulsa,Tulsa,OK,US/Central,KTUL,64.0,64.0,93.0,28.95,10.0,WNW,14.0,0.0,Cloudy,False,False,False,False,False,False,False,False,False,True,False,False,False,Night,24.79138888888889,Very Long
2,2021-07-30 14:21:00,2021-07-31 16:28:32,32.426965,-93.743836,0.018,Shreveport,Caddo,LA,US/Central,KSHV,96.0,96.0,49.0,29.84,10.0,N,7.0,0.0,Fair,False,False,False,False,False,False,False,False,False,False,False,False,False,Day,26.125555555555554,Very Long
2,2022-01-26 01:50:00,2022-01-27 03:05:06,26.08382821070631,-80.1687061782829,0.509,Fort Lauderdale,Broward,FL,US/Eastern,KFLL,71.0,71.0,70.0,29.95,10.0,SSE,12.0,0.0,Cloudy,False,False,False,False,False,False,False,False,False,False,False,False,False,Night,25.251666666666665,Very Long
2,2020-06-01 15:58:12,2020-06-05 14:17:01,47.91227,-116.84467,0.0,Spirit Lake,Kootenai,ID,US/Pacific,KCOE,68.0,68.0,43.0,27.61,10.0,WSW,14.0,0.0,Partly Cloudy,False,False,False,False,False,False,False,False,False,False,False,False,False,Day,94.31361111111111,Very Long
2,2019-02-09 15:48:27,2019-02-11 14:48:00,45.271627,-120.747451,0.415,Grass Valley,Sherman,OR,US/Pacific,KDLS,26.6,21.2,93.0,29.76,0.5,East,4.6,0.01,Snow,False,False,False,False,False,False,False,False,False,False,False,False,False,Day,46.9925,Very Long
2,2022-12-25 16:51:41,2022-12-26 18:37:52,36.235132,-95.958408,0.038,Tulsa,Tulsa,OK,US/Central,KTUL,37.0,30.0,39.0,29.45,10.0,S,10.0,0.0,Cloudy,False,False,False,False,False,False,False,False,False,False,False,False,False,Day,25.76972222222222,Very Long
2,2022-12-14 20:56:45,2022-12-15 21:58:14,47.02164000000001,-114.362863,0.978,Huson,Missoula,MT,US/Mountain,KMSO,24.0,24.0,84.0,26.91,10.0,CALM,0.0,0.0,Mostly Cloudy,False,False,False,False,False,False,False,False,False,False,False,False,False,Night,25.024722222222223,Very Long
2,2021-07-25 03:49:00,2022-07-25 05:34:00,30.056930780267443,-89.94389891581562,0.298,New Orleans,Orleans,LA,US/Central,KNEW,85.0,85.0,74.0,29.98,10.0,NNW,5.0,0.0,Light Rain,False,False,False,False,True,False,False,False,False,False,False,False,False,Night,8761.75,Very Long
4,2022-11-09 17:25:00,2022-11-10 18:13:00,30.118179,-91.943682,0.056,Broussard,Lafayette,LA,US/Central,KLFT,73.0,73.0,66.0,30.04,10.0,ENE,3.0,0.0,Fair,False,False,False,False,False,False,False,False,False,False,False,False,False,Night,24.8,Very Long
2,2022-11-16 07:34:41,2022-11-17 08:33:00,45.154183,-107.369831,1.721,Lodge Grass,Big Horn,MT,US/Mountain,KSHR,32.0,19.0,73.0,26.25,10.0,NW,23.0,0.0,Cloudy / Windy,False,False,False,False,False,False,False,False,False,False,False,False,False,Day,24.971944444444443,Very Long
2,2019-10-04 23:06:30,2019-10-07 13:06:00,44.31778,-120.6667,0.214,Prineville,Crook,OR,US/Pacific,KRDM,34.0,34.0,82.0,27.08,10.0,CALM,0.0,0.0,Fair,False,False,False,False,False,False,False,False,False,False,False,False,False,Night,61.99166666666667,Very Long
2,2021-01-23 07:50:00,2021-01-24 09:06:46,32.942186,-93.898787,0.141,Ida,Caddo,LA,US/Central,KTXK,43.0,38.0,60.0,29.74,10.0,ENE,9.0,0.0,Cloudy,False,False,False,False,False,False,False,False,False,False,False,False,False,Day,25.279444444444444,Very Long
2,2022-06-18 23:39:00,2022-06-20 01:16:28,32.543554,-93.809217,0.064,Shreveport,Caddo,LA,US/Central,KDTN,82.0,82.0,62.0,29.82,10.0,E,3.0,0.0,Fair,False,False,False,False,False,False,False,False,False,False,False,False,False,Night,25.624444444444446,Very Long
2,2021-05-21 04:56:30,2021-05-22 14:57:10,25.685064,-80.427401,0.16,Miami,Miami-Dade,FL,US/Eastern,KTMB,74.0,74.0,73.0,30.13,10.0,E,13.0,0.0,Cloudy,False,False,False,False,False,False,False,False,False,False,False,False,False,Night,34.01111111111111,Very Long
2,2022-04-25 17:30:00,2022-04-26 17:45:00,47.96747,-122.198321,0.8170000000000001,Everett,Snohomish,WA,US/Pacific,KPAE,50.0,50.0,71.0,29.42,10.0,N,8.0,0.0,Fair,False,False,False,False,False,False,False,False,False,False,False,False,False,Day,24.25,Very Long
2,2021-06-21 09:30:00,2021-06-25 17:45:00,33.436796,-111.83124,0.054,Mesa,Maricopa,AZ,US/Mountain,KFFZ,92.0,92.0,30.0,28.72,10.0,VAR,5.0,0.0,Fair,False,False,True,False,False,False,False,False,False,False,False,True,False,Day,104.25,Very Long
2,2021-02-11 12:05:00,2021-02-13 18:29:30,45.49659000000001,-122.565256,6.989,Portland,Multnomah,OR,US/Pacific,KPDX,37.0,27.0,65.0,29.96,7.0,ESE,17.0,0.0,Cloudy,False,False,False,False,False,False,False,False,False,False,False,False,False,Day,54.40833333333333,Very Long
4,2020-09-10 22:40:07,2020-09-15 03:21:35,44.110246,-122.662256,1.6840000000000002,Walterville,Lane,OR,US/Pacific,KEUG,56.0,56.0,80.0,29.67,3.0,SSE,6.0,0.0,Smoke,False,False,False,False,False,False,False,False,False,False,False,False,False,Night,100.69111111111111,Very Long
2,2022-12-04 19:52:25,2022-12-05 21:32:10,46.937872,-114.099994,0.243,Missoula,Missoula,MT,US/Mountain,KMSO,14.0,6.0,84.0,26.66,3.0,WSW,5.0,0.0,Light Snow,False,False,False,False,False,False,False,False,False,False,False,False,False,Night,25.6625,Very Long
2,2020-11-13 08:12:00,2020-11-14 09:27:52,28.390709,-81.404667,0.008,Orlando,Orange,FL,US/Eastern,KMCO,71.0,71.0,96.0,29.91,10.0,N,5.0,0.0,Cloudy,False,False,True,False,False,False,False,False,False,False,False,True,False,Day,25.264444444444443,Very Long
2,2021-05-29 01:05:00,2022-05-29 02:50:00,30.24708867058636,-92.78279185250862,2.34,Welsh,Jefferson Davis,LA,US/Central,K3R7,73.0,73.0,100.0,29.94,10.0,CALM,0.0,0.0,Fair,False,False,False,False,False,False,False,False,False,False,False,False,False,Night,8761.75,Very Long
2,2022-07-12 18:48:00,2022-07-13 19:53:58,29.630262,-90.704682,0.087,Houma,Terrebonne,LA,US/Central,KHUM,81.0,81.0,84.0,29.9,7.0,WSW,3.0,0.0,Fair,False,False,False,False,False,False,False,False,False,False,False,False,False,Day,25.099444444444444,Very Long
4,2021-03-04 08:56:00,2021-05-17 12:42:13,39.754257,-75.55317099999998,0.48,Wilmington,New Castle,DE,US/Eastern,KILG,45.0,39.0,53.0,29.81,10.0,WNW,14.0,0.0,Fair,False,False,False,False,False,False,False,False,False,False,False,False,False,Day,1779.7702777777777,Very Long
4,2022-02-25 15:53:00,2022-02-26 16:42:34,33.53536963446839,-112.11242079681342,0.511,Phoenix,Maricopa,AZ,US/Mountain,KPHX,64.0,64.0,22.0,28.85,10.0,VAR,5.0,0.0,Partly Cloudy,False,False,False,False,True,False,False,False,False,False,False,False,False,Day,24.82611111111111,Very Long
2,2022-03-21 00:43:00,2022-03-23 23:00:00,37.677866,-112.847284,0.024,Brian Head,Iron,UT,US/Mountain,KCDC,31.0,22.0,47.0,24.45,10.0,NE,12.0,0.0,Fair,False,False,False,False,False,False,False,False,False,False,False,False,False,Night,70.28333333333333,Very Long
2,2021-02-01 12:16:30,2021-02-03 07:30:00,33.979746,-117.370125,0.818,Riverside,Riverside,CA,US/Pacific,KRAL,63.0,63.0,38.0,29.22,10.0,S,3.0,0.0,Cloudy,False,False,False,False,True,False,False,False,False,False,False,True,False,Day,43.225,Very Long
2,2021-10-14 06:30:43,2021-10-15 07:19:40,45.832873,-109.920898,0.115,Big Timber,Sweet Grass,MT,US/Mountain,KLVM,35.0,25.0,70.0,25.21,10.0,SW,17.0,0.0,Cloudy,False,False,False,False,False,False,False,False,False,False,False,False,False,Night,24.815833333333334,Very Long
2,2020-09-28 10:28:00,2021-09-28 12:13:00,30.643411,-91.245907,0.257,Zachary,East Baton Rouge,LA,US/Central,KBTR,85.0,85.0,77.0,29.78,10.0,W,12.0,0.0,Partly Cloudy,False,False,False,False,False,False,False,False,False,False,False,False,False,Day,8761.75,Very Long
2,2022-09-08 16:19:00,2022-09-09 18:09:16,32.538818,-93.761508,0.115,Shreveport,Bossier,LA,US/Central,KDTN,87.0,87.0,48.0,29.62,10.0,NE,9.0,0.0,Fair,False,False,False,False,False,False,False,False,False,False,False,False,False,Day,25.837777777777777,Very Long
2,2021-10-11 15:07:00,2021-10-12 16:25:56,32.541466,-93.846794,0.242,Shreveport,Caddo,LA,US/Central,KDTN,85.0,85.0,38.0,29.62,10.0,W,13.0,0.0,Fair,False,False,False,False,False,False,False,False,False,False,False,False,False,Day,25.315555555555555,Very Long
2,2020-12-31 19:00:00,2021-12-31 20:45:00,32.519725,-93.708146,0.7390000000000001,Bossier City,Bossier,LA,US/Central,KBAD,47.0,45.0,91.0,29.46,6.0,ESE,5.0,0.22,Light Rain,False,False,False,False,True,False,False,False,False,False,False,False,False,Night,8761.75,Very Long
2,2021-03-19 20:11:00,2021-03-20 20:59:43,39.68320727329405,-75.65798163377923,0.72,Newark,New Castle,DE,US/Eastern,KILG,41.0,36.0,31.0,30.27,10.0,NNE,8.0,0.0,Fair,False,False,False,False,False,False,False,False,False,False,False,False,False,Night,24.811944444444446,Very Long
2,2021-07-01 12:51:00,2022-07-01 14:36:00,30.19752144799138,-93.18471550897034,0.942,Lake Charles,Calcasieu,LA,US/Central,KCWF,90.0,90.0,59.0,29.98,10.0,ESE,8.0,0.0,Mostly Cloudy,False,False,False,False,True,False,False,False,False,False,False,False,False,Day,8761.75,Very Long
2,2023-01-27 09:51:00,2023-01-28 13:45:00,29.36786056,-94.95980144,1.026,La Marque,Galveston,TX,US/Central,KGLS,55.0,55.0,59.0,30.4,10.0,ESE,8.0,0.0,Cloudy,False,False,True,False,False,False,True,False,False,False,False,False,False,Day,27.9,Very Long
2,2021-07-02 14:45:00,2021-07-03 17:22:01,32.399845,-93.802635,0.189,Shreveport,Caddo,LA,US/Central,KSHV,81.0,81.0,79.0,29.73,6.0,NNE,10.0,0.02,Light Rain,False,False,False,False,False,False,False,False,False,False,False,False,False,Day,26.616944444444446,Very Long
2,2020-10-31 09:25:00,2020-11-01 10:44:27,30.402021,-91.173941,0.077,Baton Rouge,East Baton Rouge,LA,US/Central,KBTR,57.0,57.0,72.0,30.18,10.0,VAR,3.0,0.0,Fair,False,False,False,False,False,False,False,False,False,False,False,False,False,Day,25.324166666666667,Very Long
2,2022-12-21 12:50:35,2022-12-22 14:39:18,36.061105,-96.004088,0.07,Tulsa,Tulsa,OK,US/Central,KRVS,44.0,38.0,55.0,29.42,10.0,S,13.0,0.0,Cloudy,False,False,True,False,False,False,False,False,False,False,False,True,False,Day,25.811944444444446,Very Long
4,2020-02-03 13:25:05,2020-02-07 13:24:44,40.78197,-73.97165,0.534,New York,New York,NY,US/Eastern,KNYC,54.0,54.0,43.0,29.69,10.0,SW,10.0,0.0,Fair,True,False,True,False,False,False,True,False,True,False,False,True,False,Day,95.99416666666667,Very Long
2,2022-12-25 10:51:44,2022-12-26 11:54:57,46.795443,-113.751631,1.131,Clinton,Missoula,MT,US/Mountain,KMSO,30.0,30.0,85.0,26.94,7.0,VAR,3.0,0.0,Cloudy,False,False,False,False,False,False,False,False,False,False,False,False,False,Day,25.05361111111111,Very Long
2,2021-07-08 21:47:00,2021-07-09 22:33:32,40.446025,-96.741958,2.004,Pickrell,Gage,NE,US/Central,KBIE,78.0,78.0,62.0,28.51,10.0,SSE,10.0,0.0,Fair,False,False,False,False,False,False,False,False,False,False,False,False,False,Night,24.775555555555556,Very Long
2,2020-11-13 21:14:02,2021-01-01 07:59:00,39.09606,-84.522339,0.601,Cincinnati,Hamilton,OH,US/Eastern,KLUK,36.0,36.0,82.0,29.67,10.0,CALM,0.0,0.0,Fair,False,False,False,False,False,False,False,False,False,False,False,False,False,Night,1162.7494444444444,Very Long
2,2022-03-20 01:34:00,2022-03-21 03:29:15,30.541956,-84.21217299999998,0.218,Tallahassee,Leon,FL,US/Eastern,KTLH,60.0,60.0,90.0,30.03,10.0,NW,8.0,0.0,Partly Cloudy,False,False,False,False,False,False,False,False,False,False,False,False,False,Night,25.920833333333334,Very Long
2,2022-11-17 07:56:45,2022-11-18 08:51:31,46.72906500000001,-114.079175,0.286,Lolo,Missoula,MT,US/Mountain,KMSO,23.0,10.0,58.0,27.25,10.0,ESE,15.0,0.0,Fair,False,False,False,False,False,False,False,False,False,False,False,False,False,Day,24.912777777777777,Very Long
4,2020-06-26 09:58:11,2020-07-01 06:00:00,45.55981,-122.17327,6.625,Corbett,Multnomah,OR,US/Pacific,KTTD,69.0,69.0,63.0,30.01,10.0,VAR,3.0,0.0,Fair,False,False,False,False,False,False,False,False,False,False,False,False,False,Day,116.03027777777778,Very Long
2,2022-10-31 19:21:42,2022-11-01 20:13:28,36.082031,-95.962877,0.053,Tulsa,Tulsa,OK,US/Central,KRVS,60.0,60.0,47.0,29.27,10.0,CALM,0.0,0.0,Fair,False,False,False,False,False,False,False,False,False,True,False,False,False,Night,24.86277777777778,Very Long
2,2022-12-21 00:32:00,2022-12-22 02:07:13,28.613065,-81.417424,0.073,Orlando,Orange,FL,US/Eastern,KORL,63.0,63.0,93.0,29.98,7.0,NNW,8.0,0.0,Light Rain,False,False,False,False,False,False,False,False,False,False,False,False,False,Night,25.586944444444445,Very Long
2,2022-12-31 20:16:55,2023-01-01 22:08:22,36.084014,-95.940107,0.1,Tulsa,Tulsa,OK,US/Central,KRVS,48.0,48.0,83.0,29.09,10.0,CALM,0.0,0.0,Fair,False,False,False,False,False,False,False,False,False,False,False,False,False,Night,25.8575,Very Long
4,2022-09-30 12:36:12,2022-10-01 13:25:19,45.637746,-108.7664,0.134,Laurel,Yellowstone,MT,US/Mountain,KBIL,53.0,53.0,96.0,26.37,5.0,W,3.0,0.02,Light Rain,False,False,False,False,False,False,False,False,False,False,False,False,False,Day,24.81861111111111,Very Long
2,2021-03-30 20:44:30,2021-04-08 15:54:22,40.649705,-74.222443,0.359,Elizabeth,Union,NJ,US/Eastern,KLDJ,54.0,54.0,51.0,30.24,10.0,S,10.0,0.0,Fair,False,False,False,False,False,False,False,False,False,False,False,True,False,Night,211.16444444444446,Very Long
2,2021-01-29 20:57:09,2021-02-20 14:58:00,43.339709,-124.198445,0.112,Coos Bay,Coos,OR,US/Pacific,KOTH,44.0,38.0,85.0,29.87,10.0,S,13.0,0.08,Light Rain,False,False,False,False,False,False,False,False,False,True,False,False,False,Night,522.0141666666667,Very Long
2,2020-10-20 21:19:00,2021-10-20 23:04:00,32.477148,-93.834524,0.056,Shreveport,Caddo,LA,US/Central,KSHV,74.0,74.0,79.0,29.81,10.0,SE,5.0,0.0,Fair,False,False,False,False,False,False,False,False,False,False,False,False,False,Night,8761.75,Very Long
2,2021-02-14 21:46:40,2021-02-17 17:05:00,45.74789643265844,-119.11573290768094,4.1110000000000015,Stanfield,Umatilla,OR,US/Pacific,KHRI,22.0,22.0,89.0,29.3,1.0,W,3.0,0.0,Light Snow,False,False,False,False,False,False,False,False,False,False,False,False,False,Night,67.30555555555556,Very Long
2,2020-12-16 13:53:25,2020-12-23 01:39:30,25.984644,-80.17466,0.496,Hallandale,Broward,FL,US/Eastern,KFLL,83.0,83.0,65.0,29.9,10.0,SSE,17.0,0.0,Mostly Cloudy,False,False,False,False,False,False,False,False,False,False,False,False,False,Day,155.76805555555555,Very Long
2,2021-02-15 01:49:00,2021-02-16 10:44:31,28.542383,-81.44651999999998,0.037,Orlando,Orange,FL,US/Eastern,KORL,70.0,70.0,93.0,29.88,10.0,CALM,0.0,0.0,Cloudy,False,False,False,False,False,False,False,False,False,False,False,False,False,Night,32.92527777777778,Very Long
2,2022-08-09 14:52:06,2022-08-10 15:54:29,41.78779721,-107.20374227,1.6909999999999998,Rawlins,Carbon,WY,US/Mountain,KRWL,89.0,89.0,9.0,23.58,10.0,CALM,0.0,0.0,Fair,False,False,False,False,False,False,False,False,False,False,False,False,False,Day,25.039722222222224,Very Long
4,2021-11-01 19:00:00,2022-01-03 05:00:00,39.24352800000001,-104.878026,0.144,Castle Rock,Douglas,CO,US/Mountain,KMNH,32.0,27.0,93.0,23.33,10.0,ENE,5.0,0.0,Cloudy,False,False,False,False,False,False,False,False,False,False,False,False,False,Night,1498.0,Very Long
2,2021-01-12 23:55:00,2021-01-14 02:22:37,32.468747,-93.722109,0.118,Shreveport,Caddo,LA,US/Central,KBAD,41.0,41.0,75.0,30.09,10.0,CALM,0.0,0.0,Cloudy,False,False,False,False,False,False,False,False,False,False,False,False,False,Night,26.460277777777776,Very Long
2,2020-12-07 11:32:00,2020-12-08 12:53:47,39.68134000000001,-75.662316,0.265,Newark,New Castle,DE,US/Eastern,KILG,38.0,33.0,48.0,29.73,10.0,N,7.0,0.0,Fair,False,False,False,False,False,False,False,False,False,False,False,False,False,Day,25.363055555555555,Very Long
2,2022-09-23 09:37:14,2022-09-24 10:27:15,36.177016,-95.862227,0.073,Tulsa,Tulsa,OK,US/Central,KTUL,70.0,70.0,51.0,29.34,10.0,S,14.0,0.0,Fair,False,False,False,False,False,False,False,False,False,False,False,False,False,Day,24.83361111111111,Very Long
2,2021-02-11 07:32:00,2021-02-12 09:44:00,32.810379266582444,-97.31480240775434,1.834,Fort Worth,Tarrant,TX,US/Central,KFWD,23.0,10.0,92.0,29.48,7.0,N,16.0,0.0,Cloudy,False,False,False,False,False,False,False,False,False,False,False,False,False,Day,26.2,Very Long
2,2021-07-01 12:37:00,2022-07-01 14:22:00,30.425187349174376,-91.1598837371294,0.598,Baton Rouge,East Baton Rouge,LA,US/Central,KBTR,88.0,88.0,59.0,29.93,10.0,N,6.0,0.0,Mostly Cloudy,False,False,False,False,False,False,False,False,False,False,False,False,False,Day,8761.75,Very Long
2,2021-02-01 06:23:51,2021-02-02 07:53:00,39.254139,-94.692224,1.925,Kansas City,Platte,MO,US/Central,KMCI,29.0,20.0,82.0,29.31,9.0,N,10.0,0.0,Cloudy,False,False,False,False,False,False,False,False,False,False,False,False,False,Night,25.485833333333332,Very Long
2,2020-09-08 08:05:21,2020-09-12 19:00:00,42.53223300000001,-121.88608899999998,0.042,Chiloquin,Klamath,OR,US/Pacific,KLMT,49.0,43.0,43.0,26.04,8.0,NE,16.0,0.0,Mostly Cloudy,False,False,False,False,False,False,False,False,False,False,False,False,False,Day,106.91083333333333,Very Long
2,2021-12-10 03:47:05,2021-12-12 12:13:50,46.27062100000001,-112.254429,0.238,Clancy,Jefferson,MT,US/Mountain,KHLN,21.0,21.0,57.0,25.81,10.0,W,3.0,0.0,Fair,False,False,False,False,False,False,False,False,False,False,False,False,False,Night,56.44583333333333,Very Long
2,2021-01-19 04:30:00,2021-01-20 07:32:37,32.391584,-93.780502,0.04,Shreveport,Caddo,LA,US/Central,KSHV,52.0,52.0,66.0,29.95,10.0,N,8.0,0.0,Mostly Cloudy,False,False,False,False,False,False,False,False,False,False,False,False,False,Night,27.04361111111111,Very Long
2,2022-02-22 16:11:00,2023-02-22 17:56:00,30.006848573541607,-90.27505516962871,0.818,Kenner,Jefferson,LA,US/Central,KMSY,78.0,78.0,74.0,30.08,7.0,S,16.0,0.0,Mostly Cloudy,False,False,False,False,False,False,False,False,False,False,False,False,False,Day,8761.75,Very Long
2,2020-09-24 23:46:14,2020-09-26 00:31:20,40.682334,-96.254872,2.951,Unadilla,Otoe,NE,US/Central,KAFK,68.0,68.0,93.0,28.58,10.0,S,9.0,0.0,Fair,False,False,False,False,False,False,False,False,False,False,False,False,False,Night,24.751666666666665,Very Long
2,2021-09-28 15:56:00,2022-09-28 17:41:00,30.50745,-91.18593,0.117,Baton Rouge,East Baton Rouge,LA,US/Central,KBTR,73.0,73.0,96.0,29.87,7.0,SW,9.0,0.03,Light Rain,False,False,False,False,False,False,False,False,False,False,False,False,False,Day,8761.75,Very Long
2,2022-02-07 12:29:35,2022-02-08 14:03:00,48.63788008666688,-111.8620741362006,2.707,Shelby,Toole,MT,US/Mountain,KCTB,54.0,54.0,17.0,25.89,10.0,WSW,51.0,0.0,Fair / Windy,False,False,False,False,False,False,False,False,False,False,False,False,False,Day,25.556944444444444,Very Long
2,2021-04-11 18:20:00,2021-04-12 19:52:13,34.521266,-111.512976,0.068,Sedona,Coconino,AZ,US/Mountain,KSEZ,72.0,72.0,8.0,24.77,10.0,WSW,15.0,0.0,Fair,False,False,False,False,False,False,False,False,False,False,False,False,False,Day,25.536944444444444,Very Long
2,2020-10-17 07:03:00,2020-10-18 08:20:27,30.319937,-82.809759,5.415,Live Oak,Suwannee,FL,US/Eastern,KLCQ,55.0,55.0,72.0,30.07,10.0,N,5.0,0.0,Cloudy,False,False,False,False,False,False,False,False,False,False,False,False,False,Night,25.29083333333333,Very Long
2,2021-07-21 16:56:00,2021-07-22 19:19:01,32.404243,-93.852791,0.223,Shreveport,Caddo,LA,US/Central,KSHV,88.0,88.0,59.0,29.79,10.0,NNW,8.0,0.0,Partly Cloudy,False,False,False,False,False,False,False,False,False,False,False,False,False,Day,26.38361111111111,Very Long
2,2021-02-20 14:36:51,2021-02-21 15:21:55,37.69717097264434,-97.31626152945844,0.425,Wichita,Sedgwick,KS,US/Central,KAAO,42.0,36.0,55.0,28.54,10.0,SE,12.0,0.0,Fair,False,False,False,False,True,False,False,False,False,False,False,False,False,Day,24.75111111111111,Very Long
2,2021-06-26 16:33:03,2021-06-27 17:36:52,35.377711,-103.400555,0.339,Logan,Quay,NM,US/Mountain,KTCC,67.0,67.0,73.0,25.85,8.0,N,24.0,0.01,T-Storm / Windy,False,False,False,False,False,False,False,False,False,False,False,False,False,Day,25.06361111111111,Very Long
2,2022-09-22 03:20:00,2022-09-23 04:35:37,28.228071000000003,-81.18373000000003,0.373,Saint Cloud,Osceola,FL,US/Eastern,KMCO,76.0,76.0,91.0,29.74,10.0,NNW,6.0,0.0,Fair,False,False,False,False,False,False,False,False,False,False,False,False,False,Night,25.260277777777777,Very Long
2,2021-04-01 02:04:00,2021-04-07 12:03:52,25.927547,-80.213876,0.8420000000000001,Miami,Miami-Dade,FL,US/Eastern,KHWO,73.0,73.0,81.0,30.07,10.0,CALM,0.0,0.0,Fair,False,False,False,False,False,False,False,False,False,False,False,False,False,Night,153.99777777777777,Very Long
2,2022-03-16 06:46:00,2022-03-17 07:47:00,31.220837,-81.522832,0.9,Brunswick,Glynn,GA,US/Eastern,KSSI,65.0,65.0,90.0,29.99,9.0,SSE,6.0,0.0,Cloudy,False,False,False,False,False,False,False,False,False,False,False,False,False,Night,25.016666666666666,Very Long
2,2021-10-25 10:17:00,2021-10-26 11:20:55,33.428542,-112.059177,0.937,Phoenix,Maricopa,AZ,US/Mountain,KPHX,71.0,71.0,39.0,28.7,10.0,ESE,10.0,0.0,Fair,False,False,False,False,False,False,False,False,False,False,False,False,False,Day,25.065277777777776,Very Long
2,2020-11-17 23:45:00,2020-11-19 01:03:04,32.488076,-93.76809,0.182,Shreveport,Caddo,LA,US/Central,KDTN,47.0,47.0,74.0,30.26,10.0,ENE,3.0,0.0,Fair,False,False,False,False,False,False,False,False,False,False,False,False,False,Night,25.301111111111112,Very Long
2,2021-10-28 23:48:00,2021-10-30 01:07:24,32.501789,-93.734665,0.129,Shreveport,Caddo,LA,US/Central,KDTN,60.0,60.0,51.0,29.54,10.0,NW,9.0,0.0,Cloudy,False,False,False,False,False,False,False,False,False,False,False,False,False,Night,25.323333333333334,Very Long
2,2022-04-06 10:18:00,2022-04-07 11:35:14,32.459801,-93.794449,0.168,Shreveport,Caddo,LA,US/Central,KSHV,64.0,64.0,80.0,29.54,10.0,NNW,24.0,0.0,Mostly Cloudy / Windy,False,False,False,False,False,False,False,False,False,False,False,False,False,Day,25.287222222222223,Very Long
2,2021-01-12 15:35:00,2021-01-13 16:22:30,34.784596,-112.45231,0.218,Chino Valley,Yavapai,AZ,US/Mountain,KPRC,51.0,51.0,8.0,25.15,10.0,VAR,3.0,0.0,Fair,False,False,False,False,False,False,False,False,False,False,False,False,False,Day,24.791666666666668,Very Long
2,2021-11-21 02:34:00,2022-11-21 04:19:00,30.38381695732887,-91.56897425607886,3.923,Grosse Tete,Iberville,LA,US/Central,KBTR,60.0,60.0,96.0,30.08,5.0,E,5.0,0.0,Partly Cloudy,False,False,False,False,False,False,False,False,False,False,False,False,False,Night,8761.75,Very Long
4,2022-06-19 02:39:04,2022-06-26 23:59:00,32.785169,-96.780925,0.046,Dallas,Dallas,TX,US/Central,KDAL,84.0,84.0,63.0,29.48,10.0,E,5.0,0.0,Fair,False,False,True,False,False,False,False,False,False,False,False,False,False,Night,189.3322222222222,Very Long
4,2021-04-13 20:41:00,2021-04-14 21:44:04,39.678755,-105.934019,0.841,Dillon,Summit,CO,US/Mountain,KCCU,27.0,17.0,96.0,20.71,1.0,S,12.0,0.06,Light Snow,False,False,False,False,False,False,False,False,False,False,False,False,False,Night,25.051111111111112,Very Long
2,2021-02-23 17:27:00,2022-02-23 19:12:00,30.293291,-89.746253,0.955,Slidell,St. Tammany,LA,US/Central,KASD,59.0,59.0,36.0,30.07,10.0,SE,3.0,0.0,Fair,False,False,False,False,False,False,False,False,False,False,False,False,False,Day,8761.75,Very Long
2,2023-01-14 11:01:17,2023-01-15 12:49:28,36.148089,-95.850113,0.055,Tulsa,Tulsa,OK,US/Central,KTUL,41.0,33.0,55.0,29.51,10.0,S,15.0,0.0,Mostly Cloudy,False,False,True,False,False,False,False,False,True,False,False,False,False,Day,25.803055555555556,Very Long
2,2021-12-30 18:41:00,2022-01-02 19:38:00,40.714386,-111.807873,1.034,Salt Lake City,Salt Lake,UT,US/Mountain,KSLC,34.0,25.0,89.0,25.35,2.0,NW,14.0,0.02,Light Snow,False,False,False,False,False,False,False,False,False,False,False,False,False,Night,72.95,Very Long
2,2021-12-16 12:02:23,2021-12-20 11:45:00,45.185237,-120.695331,0.504,Kent,Sherman,OR,US/Pacific,KDLS,41.0,41.0,76.0,29.77,9.0,CALM,0.0,0.0,Cloudy,False,False,False,False,False,False,False,False,False,False,False,False,False,Day,95.71027777777778,Very Long
2,2020-10-01 00:35:00,2020-10-02 04:40:16,32.511645,-93.740018,0.33,Shreveport,Caddo,LA,US/Central,KDTN,68.0,68.0,56.0,29.86,10.0,CALM,0.0,0.0,Fair,False,False,False,False,True,False,False,False,False,False,False,False,False,Night,28.087777777777777,Very Long
3,2021-06-28 07:10:05,2021-06-29 10:17:00,42.361111,-83.05438199999998,0.6700000166893005,Detroit,Wayne,MI,US/Eastern,KDET,76.0,76.0,87.0,29.45,10.0,WSW,6.0,0.0,Fair,False,False,False,False,True,False,False,False,False,False,False,False,False,Day,27.115277777777777,Very Long
2,2022-10-08 13:30:25,2022-10-09 14:19:51,36.133526,-95.86246,0.116,Tulsa,Tulsa,OK,US/Central,KTUL,70.0,70.0,31.0,29.65,10.0,NNE,3.0,0.0,Fair,False,False,True,False,False,False,False,False,True,True,False,False,False,Day,24.823888888888888,Very Long
2,2020-06-15 22:45:00,2020-06-16 23:59:00,41.22717,-95.95975,0.0,Omaha,Douglas,NE,US/Central,KOMA,81.0,81.0,56.0,29.06,10.0,SSE,14.0,0.0,Partly Cloudy,False,False,False,False,False,False,False,False,False,False,False,False,False,Night,25.233333333333334,Very Long
4,2021-01-15 22:55:25,2021-01-17 00:20:32,41.691061,-96.502361,9.907,Hooper,Dodge,NE,US/Central,KFET,30.0,19.0,82.0,28.64,10.0,NW,15.0,0.0,Cloudy,False,False,False,False,False,False,False,False,False,False,False,False,False,Night,25.41861111111111,Very Long
2,2020-12-24 09:26:00,2021-12-24 11:11:00,30.438984,-91.189152,0.412,Baton Rouge,East Baton Rouge,LA,US/Central,KBTR,42.0,35.0,49.0,30.1,10.0,NW,14.0,0.0,Cloudy,False,False,False,False,False,False,False,False,False,False,False,False,False,Day,8761.75,Very Long
2,2023-01-17 00:01:00,2023-01-18 00:44:00,34.311871999999994,-117.474747,0.055,San Bernardino,San Bernardino,CA,US/Pacific,KSBD,47.0,45.0,74.0,28.6,10.0,SW,5.0,0.0,Mostly Cloudy,False,False,False,False,False,False,False,False,False,False,False,False,False,Night,24.716666666666665,Very Long
2,2022-08-29 12:16:50,2022-08-30 12:21:12,34.143792,-80.83544,0.019,Elgin,Richland,SC,US/Eastern,KCDN,82.0,82.0,74.0,29.78,10.0,VAR,7.0,0.0,Mostly Cloudy,False,False,True,False,False,False,True,False,False,False,False,False,False,Day,24.072777777777777,Very Long
2,2022-06-15 15:26:18,2022-06-16 16:14:32,36.10443400000001,-95.761694,0.122,Broken Arrow,Tulsa,OK,US/Central,KTUL,89.0,89.0,59.0,29.15,10.0,S,20.0,0.0,Cloudy,False,False,False,False,False,False,False,False,False,True,False,False,False,Day,24.80388888888889,Very Long
3,2019-07-14 13:19:10,2019-08-31 10:30:00,40.82164,-95.807564,1.75,Thurman,Fremont,IA,US/Central,KPMV,89.0,89.0,55.0,28.77,10.0,SSE,10.0,0.0,Fair,False,False,False,False,False,False,False,False,False,False,False,False,False,Day,1149.1805555555557,Very Long
2,2020-12-26 09:21:00,2020-12-27 11:16:29,26.039754,-80.214089,1.63,Hollywood,Broward,FL,US/Eastern,KHWO,50.0,50.0,59.0,30.21,10.0,NW,10.0,0.0,Fair,False,False,False,False,False,False,False,False,False,False,False,False,False,Day,25.924722222222222,Very Long
2,2022-04-11 22:21:00,2022-04-13 00:46:06,32.424706,-93.702042,0.148,Shreveport,Caddo,LA,US/Central,KBAD,76.0,76.0,70.0,29.68,10.0,SE,17.0,0.0,Cloudy,False,False,False,False,False,False,False,False,False,False,False,False,False,Night,26.418333333333333,Very Long
2,2022-08-30 10:21:46,2022-08-31 11:09:59,36.166164,-95.877728,0.125,Tulsa,Tulsa,OK,US/Central,KTUL,80.0,80.0,76.0,29.37,10.0,VAR,5.0,0.0,Fair,False,False,False,False,False,False,False,False,False,False,False,False,False,Day,24.80361111111111,Very Long
2,2021-04-02 17:23:00,2021-04-03 17:45:00,46.937822,-122.541717,0.017,Roy,Pierce,WA,US/Pacific,KGRF,57.0,57.0,44.0,29.75,10.0,W,7.0,0.0,Fair,False,False,False,False,False,False,False,False,False,False,False,False,False,Day,24.366666666666667,Very Long
2,2023-01-05 14:59:00,2023-01-06 16:24:46,32.481514000000004,-93.750303,0.255,Shreveport,Caddo,LA,US/Central,KDTN,63.0,63.0,28.0,30.04,10.0,NNW,9.0,0.0,Fair,False,False,False,False,False,False,False,False,False,False,False,True,False,Day,25.429444444444446,Very Long
2,2022-04-06 16:01:00,2022-04-07 17:50:20,32.478786,-93.736008,0.0819999999999999,Shreveport,Caddo,LA,US/Central,KDTN,66.0,66.0,47.0,29.66,10.0,N,12.0,0.0,Cloudy,False,False,False,False,False,False,False,False,False,False,False,False,False,Day,25.822222222222223,Very Long
3,2021-05-04 06:00:00,2021-05-05 11:32:19,47.085079,-119.860031,2.289999961853028,Quincy,Grant,WA,US/Pacific,KEPH,53.0,53.0,48.0,28.73,10.0,NNW,12.0,0.0,Fair,False,False,False,False,False,False,False,False,False,False,False,False,False,Day,29.538611111111113,Very Long
2,2021-03-11 16:46:00,2021-03-12 18:22:57,32.356324,-93.751654,0.399,Shreveport,Caddo,LA,US/Central,KSHV,78.0,78.0,50.0,29.9,10.0,S,12.0,0.0,Mostly Cloudy,False,False,False,False,False,False,False,False,False,False,False,False,False,Day,25.615833333333335,Very Long
2,2020-02-06 01:16:00,2020-02-10 16:30:00,40.572,-111.77329,0.028,Sandy,Salt Lake,UT,US/Mountain,KU42,25.0,13.0,88.0,25.7,1.0,SE,14.0,0.03,Light Snow,False,False,False,False,False,False,False,False,False,False,False,False,False,Night,111.23333333333333,Very Long
2,2020-11-29 02:37:00,2021-11-29 04:22:00,30.427504,-91.169368,0.182,Baton Rouge,East Baton Rouge,LA,US/Central,KBTR,60.0,60.0,93.0,29.89,5.0,ENE,10.0,0.01,Rain,False,False,False,False,True,False,False,False,False,False,False,False,False,Night,8761.75,Very Long
2,2023-01-07 06:55:03,2023-01-23 03:09:24,34.887856,-82.40538000000002,0.078,Greenville,Greenville,SC,US/Eastern,KGMU,42.0,42.0,67.0,29.14,10.0,CALM,0.0,0.0,Fair,False,False,True,False,False,False,False,False,False,False,False,True,False,Night,380.2391666666667,Very Long
2,2020-10-21 23:54:00,2021-10-22 01:39:00,30.316053000000004,-91.82653,6.162999999999999,Breaux Bridge,St. Martin,LA,US/Central,KLFT,72.0,72.0,87.0,29.98,10.0,CALM,0.0,0.0,Fair,False,False,False,False,False,False,False,False,False,False,False,False,False,Night,8761.75,Very Long
2,2021-10-15 23:58:00,2022-10-16 01:43:00,30.46046376213808,-89.69737172083998,5.0680000000000005,Pearl River,St Tammany,LA,US/Central,KASD,76.0,76.0,87.0,29.94,10.0,CALM,0.0,0.0,Fair,False,False,False,False,False,False,False,False,False,False,False,False,False,Night,8761.75,Very Long
4,2022-08-05 22:02:00,2022-08-06 22:51:04,34.505125,-110.186623,2.5,Show Low,Navajo,AZ,US/Mountain,KSOW,72.0,72.0,50.0,23.88,10.0,SSW,7.0,0.0,Fair,False,False,False,False,False,False,False,False,False,False,False,False,False,Night,24.817777777777778,Very Long
2,2022-08-16 11:52:00,2022-08-17 13:31:19,35.046195000000004,-114.589489,0.119,Bullhead City,Mohave,AZ,US/Mountain,KIFP,99.0,99.0,27.0,29.06,10.0,N,15.0,0.0,Partly Cloudy,False,False,False,False,False,False,False,False,False,False,False,False,False,Day,25.655277777777776,Very Long
2,2020-11-09 22:43:00,2021-11-10 00:28:00,30.218528000000006,-89.78712900000002,5.863,Slidell,St. Tammany,LA,US/Central,KASD,70.0,70.0,90.0,29.9,10.0,NNE,5.0,0.0,Partly Cloudy,False,False,False,False,False,False,False,False,False,False,False,False,False,Night,8761.75,Very Long
2,2022-04-02 03:03:55,2022-04-03 03:54:33,47.04887509323574,-104.39838767001916,4.783,Glendive,Dawson,MT,US/Mountain,KGDV,25.0,18.0,85.0,27.44,10.0,SW,6.0,0.0,Fair,False,False,False,False,False,False,False,False,False,False,False,False,False,Night,24.843888888888888,Very Long
2,2022-07-07 15:25:33,2022-07-08 16:15:26,36.191453,-95.984436,0.03,Tulsa,Tulsa,OK,US/Central,KTUL,103.0,103.0,32.0,29.13,10.0,SSW,13.0,0.0,Mostly Cloudy,True,False,True,False,False,False,False,False,False,True,False,False,False,Day,24.83138888888889,Very Long
2,2022-06-27 08:42:00,2022-06-28 09:57:58,32.493363,-93.751747,0.039,Shreveport,Caddo,LA,US/Central,KDTN,80.0,80.0,71.0,29.97,10.0,NE,9.0,0.0,Partly Cloudy,False,False,False,False,False,False,False,False,False,False,False,False,False,Day,25.266111111111112,Very Long
2,2020-11-30 20:30:00,2020-12-01 20:43:28,32.682507,-117.109521,0.015,National City,San Diego,CA,US/Pacific,KNRS,57.0,57.0,72.0,30.09,10.0,NNE,3.0,0.0,Fair,False,False,False,False,False,False,False,False,False,True,False,False,False,Night,24.224444444444444,Very Long
2,2021-11-20 23:40:00,2022-11-21 01:25:00,30.0677025316712,-90.39013266520313,4.043,Norco,St. Charles,LA,US/Central,KMSY,61.0,61.0,93.0,30.19,10.0,ESE,6.0,0.0,Fair,False,False,False,False,False,False,False,False,False,False,False,False,False,Night,8761.75,Very Long
2,2022-02-21 02:45:17,2022-02-22 03:43:45,45.91468691803972,-112.28852391189436,3.221,Whitehall,Jefferson,MT,US/Mountain,KBTM,10.0,-2.0,76.0,24.21,1.0,N,8.0,0.0,Light Snow,False,False,False,False,False,False,False,False,False,False,False,False,False,Night,24.974444444444444,Very Long
4,2020-09-14 15:00:00,2020-09-16 06:55:00,45.242482,-122.327699,3.158,Estacada,Clackamas,OR,US/Pacific,KTTD,70.0,70.0,59.0,29.89,0.25,CALM,0.0,0.0,Smoke,False,False,False,False,False,False,False,False,False,False,False,False,False,Day,39.916666666666664,Very Long
2,2021-09-15 05:58:00,2022-09-15 07:43:00,29.950624,-90.085175,0.004,New Orleans,Orleans,LA,US/Pacific,KAUD,78.0,78.0,98.0,29.78,3.0,E,7.0,0.0,Light Rain,False,False,False,False,True,False,False,False,False,False,False,False,False,Night,8761.75,Very Long
2,2021-01-12 14:02:09,2021-01-14 01:46:12,25.948575,-80.205483,0.412,Miami,Miami-Dade,FL,US/Eastern,KHWO,75.0,75.0,73.0,30.13,10.0,VAR,5.0,0.0,Fair,False,False,False,False,False,False,False,False,False,False,False,False,False,Day,35.73416666666667,Very Long
2,2022-10-13 06:08:00,2022-10-14 07:09:00,33.76520900000001,-84.493914,1.227,Atlanta,Fulton,GA,US/Eastern,KFTY,63.0,63.0,100.0,29.01,6.0,CALM,0.0,0.05,Rain,False,False,False,False,False,False,False,False,False,False,False,False,False,Night,25.016666666666666,Very Long
2,2022-04-30 01:54:00,2022-05-02 12:45:00,33.809709000000005,-84.250799,0.5770000000000001,Clarkston,DeKalb,GA,US/Eastern,KPDK,62.0,62.0,56.0,29.0,10.0,SSE,5.0,0.0,Fair,False,False,False,False,False,False,False,False,False,False,False,False,False,Night,58.85,Very Long
2,2020-10-28 01:16:00,2021-10-28 03:01:00,30.391249,-89.999616,0.483,Mandeville,St. Tammany,LA,US/Central,KASD,78.0,78.0,93.0,29.9,10.0,E,3.0,0.0,Mostly Cloudy,False,False,False,False,False,False,False,False,False,False,False,False,False,Night,8761.75,Very Long
2,2020-09-10 23:15:57,2020-09-15 19:17:00,43.080749,-121.825878,15.782,Chemult,Klamath,OR,US/Pacific,KBDN,59.0,59.0,29.0,26.54,5.0,CALM,0.0,0.0,Fair,False,False,False,False,False,False,False,False,False,False,False,False,False,Night,116.0175,Very Long
2,2022-11-15 14:42:00,2022-11-16 15:30:52,39.249242,-75.58726300000002,0.079,Smyrna,Kent,DE,US/Eastern,KDOV,49.0,44.0,62.0,30.2,10.0,NE,10.0,0.0,Mostly Cloudy,False,False,False,False,False,False,False,False,False,False,False,True,False,Day,24.814444444444444,Very Long
2,2021-02-18 16:25:00,2021-02-19 20:21:03,33.98263335211762,-89.86875414805475,0.324,Tillatoba,Yalobusha,MS,US/Central,KUOX,28.0,20.0,80.0,29.78,10.0,N,8.0,0.0,Mostly Cloudy,False,False,False,False,False,False,False,False,False,False,False,False,False,Day,27.934166666666666,Very Long
2,2020-11-22 22:52:00,2020-11-24 00:30:24,33.874989,-111.460798,0.1,Fort McDowell,Maricopa,AZ,US/Mountain,KFFZ,68.0,68.0,42.0,28.64,10.0,CALM,0.0,0.0,Mostly Cloudy,False,False,False,False,False,False,False,False,False,False,False,False,False,Night,25.64,Very Long
2,2022-11-17 22:08:00,2022-11-18 23:23:00,34.437927,-84.720412,0.03,Fairmount,Gordon,GA,US/Eastern,KCNI,33.0,28.0,54.0,28.97,10.0,NW,6.0,0.0,Fair,False,False,False,False,False,False,False,False,False,False,False,False,False,Night,25.25,Very Long
2,2021-05-17 05:10:30,2021-05-20 18:40:01,25.808224,-80.313148,0.135,Miami,Miami-Dade,FL,US/Eastern,KMIA,76.0,76.0,71.0,30.06,10.0,ENE,10.0,0.0,Mostly Cloudy,False,False,False,False,False,False,False,False,False,False,False,False,False,Night,85.49194444444444,Very Long
2,2022-12-03 15:32:27,2022-12-04 17:26:28,36.207863,-95.899658,0.176,Tulsa,Tulsa,OK,US/Central,KTUL,43.0,38.0,35.0,29.77,10.0,N,8.0,0.0,Partly Cloudy,False,False,False,False,False,False,False,False,False,False,False,False,False,Day,25.900277777777777,Very Long
2,2020-12-30 22:58:00,2021-03-31 20:49:43,39.783118,-75.473129,0.79,Wilmington,New Castle,DE,US/Eastern,KILG,44.0,37.0,55.0,30.01,10.0,SSW,14.0,0.0,Cloudy,False,False,False,False,False,False,False,False,False,False,False,False,False,Night,2181.8619444444444,Very Long
2,2021-08-06 12:03:00,2021-08-07 15:04:33,32.432029,-93.750259,0.125,Shreveport,Caddo,LA,US/Central,KSHV,88.0,88.0,46.0,29.89,10.0,VAR,5.0,0.0,Fair,False,False,False,False,False,False,False,False,False,False,False,False,False,Day,27.025833333333335,Very Long
2,2021-04-19 22:05:30,2021-04-21 19:25:26,40.829929,-73.849142,4.56,Bronx,Bronx,NY,US/Eastern,KLGA,59.0,59.0,51.0,29.83,10.0,CALM,0.0,0.0,Partly Cloudy,False,False,False,False,False,False,False,False,False,False,False,False,False,Night,45.33222222222222,Very Long
2,2020-12-22 12:29:00,2020-12-24 03:48:50,25.928261,-80.194304,0.726,Miami,Miami-Dade,FL,US/Eastern,KHWO,77.0,77.0,52.0,30.17,10.0,NE,14.0,0.0,Mostly Cloudy,False,False,False,False,False,False,False,False,False,False,False,False,False,Day,39.330555555555556,Very Long
2,2020-12-07 06:30:00,2020-12-08 09:12:15,32.343044,-93.88898,0.4,Keithville,Caddo,LA,US/Central,KSHV,37.0,33.0,89.0,29.97,10.0,WSW,5.0,0.0,Fair,False,False,False,False,False,False,False,False,False,False,False,False,False,Night,26.704166666666666,Very Long
2,2021-11-19 12:01:00,2022-10-15 22:53:25,39.76569056,-75.54592967,1.358,Wilmington,New Castle,DE,US/Eastern,KILG,48.0,41.0,39.0,30.27,10.0,NW,21.0,0.0,Fair / Windy,False,False,False,False,False,False,False,False,False,False,False,False,False,Day,7930.873611111111,Very Long
2,2021-10-31 12:40:00,2021-11-01 13:56:11,32.51308,-93.75542,0.048,Shreveport,Caddo,LA,US/Central,KDTN,73.0,73.0,29.0,29.9,10.0,NNW,5.0,0.0,Fair,False,False,False,False,False,False,False,False,False,False,False,False,False,Day,25.26972222222222,Very Long
2,2021-06-16 23:13:00,2021-06-18 00:36:49,32.411662,-93.691628,0.027,Shreveport,Caddo,LA,US/Central,KBAD,78.0,78.0,82.0,29.83,10.0,CALM,0.0,0.0,Light Rain,False,False,False,False,False,False,False,False,False,False,False,False,False,Night,25.396944444444443,Very Long
2,2021-09-23 05:14:00,2022-09-23 06:59:00,30.023542642450213,-90.01397967295641,0.7,New Orleans,Orleans,LA,US/Central,KNEW,69.0,69.0,63.0,30.04,10.0,NE,21.0,0.0,Fair / Windy,False,False,False,False,False,False,False,False,False,False,False,False,False,Night,8761.75,Very Long
2,2022-12-05 04:04:00,2022-12-06 07:02:05,41.744497,-87.62524,0.8170000000000001,Chicago,Cook,IL,US/Central,KMDW,29.0,21.0,67.0,29.27,10.0,S,8.0,0.0,Mostly Cloudy,False,False,False,False,False,False,False,False,False,False,False,False,False,Night,26.968055555555555,Very Long
2,2021-10-28 16:07:00,2022-10-28 17:52:00,30.47926068291436,-90.54752469019628,1.607,Hammond,Tangipahoa,LA,US/Central,KHDC,64.0,64.0,52.0,29.58,10.0,W,14.0,0.0,Cloudy,False,False,False,False,False,False,False,False,False,False,False,False,False,Day,8761.75,Very Long
2,2022-05-19 15:20:00,2022-05-20 17:06:35,32.499977,-93.7332,0.064,Shreveport,Caddo,LA,US/Central,KDTN,92.0,92.0,42.0,29.54,10.0,S,16.0,0.0,Fair,False,False,False,False,False,False,False,False,False,False,False,False,False,Day,25.77638888888889,Very Long
2,2022-11-16 16:37:49,2022-11-17 18:26:12,36.094344,-95.851056,0.008,Tulsa,Tulsa,OK,US/Central,KTUL,40.0,32.0,40.0,29.71,10.0,NW,15.0,0.0,Fair,False,False,True,False,False,False,False,False,True,False,False,False,False,Day,25.80638888888889,Very Long
4,2022-01-11 13:10:00,2022-01-12 14:32:00,39.947293,-75.30275400000002,0.182,Drexel Hill,Delaware,PA,US/Eastern,KPHL,24.0,14.0,31.0,30.52,10.0,NW,9.0,0.0,Fair,False,False,False,False,False,False,False,False,False,False,False,False,False,Day,25.366666666666667,Very Long
2,2020-10-26 15:00:00,2020-10-29 23:45:00,45.02056,-123.863094,1.5830000000000002,Otis,Lincoln,OR,US/Pacific,KS47,54.0,54.0,51.0,30.4,10.0,NW,6.0,0.0,Fair,False,False,False,False,False,False,False,False,False,False,False,False,False,Day,80.75,Very Long
2,2022-12-25 15:12:00,2022-12-26 16:33:21,32.441990999999994,-93.745992,0.095,Shreveport,Caddo,LA,US/Central,KSHV,45.0,45.0,20.0,30.15,10.0,CALM,0.0,0.0,Fair,False,False,False,False,False,False,False,False,False,False,False,True,False,Day,25.355833333333333,Very Long
2,2021-06-12 01:26:00,2021-06-13 02:48:43,34.453316,-118.616107,0.044,Castaic,Los Angeles,CA,US/Pacific,K3A6,65.0,65.0,52.0,29.03,10.0,N,3.0,0.0,Fair,False,False,False,False,False,False,False,False,False,False,False,False,False,Night,25.378611111111113,Very Long
2,2022-07-22 21:12:15,2022-07-23 21:59:20,36.159592,-95.856175,0.189,Tulsa,Tulsa,OK,US/Central,KTUL,85.0,85.0,59.0,29.22,10.0,S,12.0,0.0,Fair,False,False,False,False,False,False,False,False,False,False,False,False,False,Night,24.78472222222222,Very Long
2,2022-04-03 20:02:53,2022-04-06 18:59:50,39.910453,-75.57778499999998,0.282,West Chester,Chester,PA,US/Eastern,KOQN,43.0,34.0,61.0,29.18,10.0,WNW,23.0,0.0,Cloudy / Windy,False,False,False,False,False,False,False,False,False,False,False,False,False,Night,70.94916666666667,Very Long
2,2021-05-20 03:01:00,2021-05-21 17:05:36,28.468802,-81.417358,0.24,Orlando,Orange,FL,US/Eastern,KMCO,70.0,70.0,78.0,30.06,10.0,ENE,7.0,0.0,Fair,False,False,False,False,False,False,False,False,False,False,False,False,False,Night,38.07666666666667,Very Long
4,2021-04-12 10:00:00,2021-04-19 23:59:00,33.778044,-84.241287,0.466,Decatur,DeKalb,GA,US/Eastern,KPDK,64.0,64.0,50.0,28.8,10.0,WNW,6.0,0.0,Fair,False,False,False,False,False,False,False,False,False,False,False,False,False,Day,181.98333333333332,Very Long
2,2022-12-18 17:27:34,2022-12-19 19:15:44,36.078099,-96.009479,0.043,Tulsa,Tulsa,OK,US/Central,KRVS,47.0,44.0,36.0,29.48,10.0,SE,7.0,0.0,Fair,False,False,False,False,False,False,False,False,False,False,False,False,False,Night,25.802777777777777,Very Long
4,2021-07-23 22:00:00,2021-07-29 05:00:00,45.498912,-122.564712,0.38,Portland,Multnomah,OR,US/Pacific,KPDX,75.0,75.0,53.0,30.11,10.0,NW,10.0,0.0,Fair,False,False,False,False,False,False,False,False,False,False,False,False,False,Night,127.0,Very Long
2,2021-04-10 19:11:00,2021-04-11 22:03:26,32.434658,-93.717644,0.245,Shreveport,Caddo,LA,US/Central,KBAD,68.0,68.0,43.0,29.58,10.0,NNW,14.0,0.0,Fair,False,False,False,False,False,False,False,False,False,False,False,False,False,Day,26.87388888888889,Very Long
2,2021-03-06 14:47:00,2021-03-07 18:06:13,33.201757,-117.230559,0.062,Vista,San Diego,CA,US/Pacific,KCRQ,62.0,62.0,62.0,29.64,10.0,W,10.0,0.0,Fair,False,False,False,False,False,False,False,False,False,False,False,False,False,Day,27.32027777777778,Very Long
2,2021-02-27 04:36:30,2021-02-28 22:34:01,38.830067,-77.434412,0.477,Centreville,Fairfax County,VA,US/Eastern,KHEF,37.0,33.0,93.0,29.99,5.0,N,6.0,0.02,Cloudy,False,False,False,False,False,False,False,False,False,False,False,True,False,Night,41.95861111111111,Very Long
2,2020-10-28 22:32:00,2020-10-30 00:54:52,32.487662,-93.746048,0.066,Shreveport,Caddo,LA,US/Central,KDTN,49.0,44.0,90.0,29.63,10.0,W,14.0,0.0,Cloudy,False,False,False,False,False,False,False,False,False,False,False,False,False,Night,26.38111111111111,Very Long
2,2022-12-05 05:38:31,2022-12-06 06:38:21,45.637334,-109.220005,1.4980000000000002,Columbus,Stillwater,MT,US/Mountain,KBIL,20.0,10.0,96.0,26.18,1.0,NE,8.0,0.02,Light Snow,False,False,False,False,False,False,False,False,False,False,False,False,False,Night,24.997222222222224,Very Long
2,2023-01-28 20:49:00,2023-01-29 22:11:45,32.425593,-93.780083,0.005,Shreveport,Caddo,LA,US/Central,KSHV,66.0,66.0,78.0,29.79,10.0,S,16.0,0.0,Cloudy,False,False,False,False,False,False,False,False,False,False,False,False,False,Night,25.379166666666666,Very Long
4,2022-11-05 23:13:17,2022-11-07 22:48:22,43.497563,-110.955536,1.763,Wilson,Teton,WY,US/Mountain,KJAC,26.0,18.0,63.0,23.47,10.0,VAR,7.0,0.0,Fair,True,False,False,False,False,False,False,False,False,False,False,False,False,Night,47.584722222222226,Very Long
2,2021-01-08 07:26:22,2021-02-15 22:08:25,32.975309,-80.01423,0.222,Goose Creek,Berkeley,SC,US/Eastern,KCHS,45.0,40.0,97.0,29.81,10.0,NNE,9.0,0.0,Cloudy,False,False,False,False,False,False,False,False,False,False,False,False,False,Day,926.7008333333333,Very Long
2,2019-12-22 17:34:06,2019-12-30 15:30:00,44.72678,-121.23482,0.0,Madras,Jefferson,OR,US/Pacific,KRDM,37.0,37.0,86.0,26.5,10.0,CALM,0.0,0.0,Cloudy,False,False,False,False,False,False,False,False,False,False,False,False,False,Night,189.93166666666667,Very Long
4,2020-11-11 08:00:00,2021-02-02 07:59:59,34.628782,-81.89026899999998,1.126,Enoree,Spartanburg,SC,US/Eastern,KLUX,72.0,72.0,100.0,29.24,2.0,SSW,5.0,0.02,Light Rain,False,False,False,False,False,False,False,False,False,False,False,False,False,Day,1991.9997222222223,Very Long
2,2020-12-31 18:45:00,2021-12-31 20:30:00,30.296269,-91.91146,4.689,Breaux Bridge,St. Martin,LA,US/Central,KLFT,72.0,72.0,87.0,29.63,10.0,SSE,15.0,0.0,Cloudy,False,False,False,False,True,False,False,False,False,False,False,False,False,Night,8761.75,Very Long
2,2021-04-01 05:22:00,2021-04-02 17:26:32,25.926026,-80.150541,0.289,North Miami Beach,Miami-Dade,FL,US/Eastern,KHWO,71.0,71.0,90.0,30.02,10.0,NNW,9.0,0.0,Fair,False,False,False,False,False,False,False,False,False,False,False,False,False,Night,36.07555555555555,Very Long
2,2021-06-04 22:08:00,2021-06-05 23:48:22,35.76298,-109.752193,0.425,Ganado,Apache,AZ,US/Mountain,KRQE,71.0,71.0,26.0,23.47,10.0,ENE,6.0,0.0,Fair,False,False,False,False,False,False,False,False,False,False,False,False,False,Night,25.672777777777778,Very Long
2,2022-01-28 08:55:00,2022-01-30 13:04:43,29.030030965666626,-82.15877652129099,4.16,Ocala,Marion,FL,US/Eastern,KOCF,52.0,52.0,80.0,29.96,10.0,NNW,6.0,0.0,Fair,False,False,False,False,False,False,False,False,False,False,False,False,False,Day,52.161944444444444,Very Long
2,2022-03-10 23:14:00,2022-03-12 01:14:58,32.480953,-93.797241,0.124,Shreveport,Caddo,LA,US/Central,KSHV,51.0,51.0,63.0,29.78,10.0,CALM,0.0,0.0,Fair,False,False,False,False,False,False,False,False,False,False,False,False,False,Night,26.016111111111112,Very Long
2,2020-11-15 22:38:00,2020-11-17 00:15:05,32.357174,-93.886531,0.872,Keithville,Caddo,LA,US/Central,KSHV,48.0,48.0,56.0,30.1,10.0,CALM,0.0,0.0,Fair,False,False,False,False,False,False,False,False,False,False,False,False,False,Night,25.618055555555557,Very Long
2,2021-10-29 22:16:00,2021-10-31 00:09:17,34.954901933503365,-110.34392237610648,2.227,Joseph City,Navajo,AZ,US/Mountain,KINW,49.0,49.0,50.0,25.13,10.0,CALM,0.0,0.0,Fair,False,False,False,False,False,False,False,False,False,False,False,False,False,Night,25.888055555555557,Very Long
2,2021-02-12 00:14:00,2021-02-13 00:44:00,47.61525200000001,-122.32081,0.039,Seattle,King,WA,US/Pacific,KBFI,30.0,24.0,75.0,30.02,10.0,N,6.0,0.0,Light Snow,True,False,True,False,False,False,True,False,True,False,False,True,False,Night,24.5,Very Long
2,2020-11-26 06:41:15,2020-11-27 08:41:00,39.062867,-94.560589,0.128,Kansas City,Jackson,MO,US/Central,KMKC,32.0,27.0,88.0,29.23,9.0,S,5.0,0.0,Fair,False,False,False,False,False,False,False,False,False,False,False,False,False,Night,25.995833333333334,Very Long
2,2021-03-17 05:51:30,2021-03-19 13:41:36,25.810476,-80.162521,1.715,Miami,Miami-Dade,FL,US/Eastern,KMIA,74.0,74.0,76.0,30.05,10.0,ESE,8.0,0.0,Partly Cloudy,False,False,False,False,False,False,False,False,False,False,False,False,False,Night,55.835,Very Long
2,2022-09-10 22:32:58,2022-09-11 23:21:54,45.693835,-120.380833,0.216,Arlington,Gilliam,OR,US/Pacific,KHRI,60.0,60.0,47.0,29.27,6.0,S,7.0,0.0,Haze,False,False,False,False,False,False,False,False,False,False,False,False,False,Night,24.815555555555555,Very Long
2,2021-12-23 23:49:00,2021-12-25 00:56:50,36.95078730565572,-113.80180478041744,4.495,Littlefield,Mohave,AZ,US/Mountain,KSGU,44.0,41.0,96.0,26.79,2.0,SSW,6.0,0.03,Light Rain,False,False,False,False,True,False,False,False,False,False,False,False,False,Night,25.130555555555556,Very Long
4,2020-09-14 15:00:00,2020-09-16 06:55:00,45.284958,-122.332972,0.136,Estacada,Clackamas,OR,US/Pacific,KTTD,70.0,70.0,59.0,29.89,0.25,CALM,0.0,0.0,Smoke,False,False,False,False,False,False,False,False,False,False,False,False,False,Day,39.916666666666664,Very Long
2,2022-11-14 17:27:14,2022-11-15 19:18:14,36.128568,-95.851842,0.133,Tulsa,Tulsa,OK,US/Central,KTUL,35.0,35.0,89.0,29.4,6.0,NW,3.0,0.02,Light Rain,False,False,True,False,False,False,False,False,False,False,False,False,False,Night,25.85,Very Long
2,2021-07-01 18:22:48,2021-12-31 23:59:00,40.479371,-75.251908,0.7340000000000001,Quakertown,Bucks,PA,US/Eastern,KUKT,73.0,73.0,100.0,29.25,10.0,CALM,0.0,0.0,Cloudy,False,False,False,False,False,False,False,False,False,False,False,False,False,Day,4397.6033333333335,Very Long
4,2021-01-17 02:11:00,2021-01-18 04:18:58,33.811556,-113.849475,0.341,Bouse,La Paz,AZ,US/Pacific,KBLH,54.0,54.0,30.0,29.64,10.0,ENE,10.0,0.0,Fair,False,False,False,False,False,False,False,False,False,False,False,False,False,Night,26.13277777777778,Very Long
2,2022-06-30 14:23:28,2022-07-01 15:12:09,36.046334,-95.892546,0.117,Tulsa,Tulsa,OK,US/Central,KRVS,94.0,94.0,33.0,29.28,10.0,VAR,6.0,0.0,Fair,False,False,False,False,False,False,False,False,False,False,False,False,False,Day,24.81138888888889,Very Long
4,2022-09-21 00:01:00,2022-09-22 00:44:00,39.141887,-121.723947,0.115,Yuba City,Sutter,CA,US/Pacific,KMYV,61.0,61.0,87.0,29.83,10.0,CALM,0.0,0.0,Fair,False,False,False,False,False,False,False,False,False,False,False,False,False,Night,24.716666666666665,Very Long
2,2022-09-08 17:48:00,2022-09-09 19:06:16,32.47094,-93.767159,0.132,Shreveport,Caddo,LA,US/Central,KSHV,86.0,86.0,44.0,29.59,10.0,NE,9.0,0.0,Fair,False,False,False,False,False,False,False,False,False,False,False,False,False,Day,25.304444444444446,Very Long
2,2020-12-15 02:18:00,2020-12-16 05:01:59,32.537402,-93.770871,0.039,Shreveport,Caddo,LA,US/Central,KDTN,36.0,32.0,82.0,29.95,10.0,E,5.0,0.0,Cloudy,False,False,False,False,False,False,False,False,False,False,False,False,False,Night,26.733055555555556,Very Long
2,2022-07-18 23:24:00,2022-07-20 01:17:06,32.457455,-93.767258,0.247,Shreveport,Caddo,LA,US/Central,KSHV,90.0,90.0,52.0,29.69,10.0,S,13.0,0.0,Fair,False,False,False,False,False,False,False,False,False,False,False,False,False,Night,25.885,Very Long
4,2020-09-09 22:34:05,2020-09-11 01:08:32,45.283626,-122.331253,2.773,Estacada,Clackamas,OR,US/Pacific,KTTD,78.0,78.0,19.0,29.85,10.0,E,17.0,0.0,Cloudy,False,False,False,False,False,False,False,False,False,False,False,False,False,Night,26.574166666666667,Very Long
2,2022-03-24 12:33:24,2022-03-25 13:27:56,36.182419,-95.996869,0.166,Tulsa,Tulsa,OK,US/Central,KTUL,56.0,56.0,39.0,29.18,10.0,WNW,15.0,0.0,Fair,False,False,True,False,False,False,False,False,False,True,False,False,False,Day,24.90888888888889,Very Long
2,2021-12-18 06:23:00,2021-12-19 07:16:20,29.99601244912149,-90.04601597743013,0.279,New Orleans,Orleans,LA,US/Central,KNEW,69.0,69.0,96.0,30.01,0.5,SSE,6.0,0.0,Fog,False,False,False,False,False,False,False,False,False,False,False,False,False,Night,24.88888888888889,Very Long
2,2022-06-07 07:51:32,2022-06-08 08:39:57,36.104448,-95.772276,0.392,Tulsa,Tulsa,OK,US/Central,KTUL,73.0,73.0,76.0,29.16,10.0,N,8.0,0.0,Cloudy,False,False,False,False,False,False,False,False,False,False,False,False,False,Day,24.806944444444444,Very Long
2,2022-05-24 09:06:48,2022-05-25 09:52:27,37.76374000000001,-97.317508,0.142,Wichita,Sedgwick,KS,US/Central,KAAO,56.0,56.0,100.0,28.34,2.0,ENE,12.0,0.05,Rain,False,False,False,False,False,False,False,False,False,False,False,False,False,Day,24.760833333333334,Very Long
4,2023-01-14 14:18:30,2023-01-16 06:43:32,37.637005,-121.886713,2.577,Pleasanton,Alameda,CA,US/Pacific,KLVK,55.0,55.0,86.0,29.24,10.0,VAR,5.0,0.02,Light Rain,False,False,False,False,False,False,False,False,False,False,False,False,False,Day,40.41722222222222,Very Long
2,2021-08-13 06:49:34,2021-08-16 10:45:00,42.805641889368026,-117.88352608624514,1.064,Jordan Valley,Malheur,OR,US/Mountain,KMAN,72.0,72.0,38.0,27.39,7.0,N,5.0,0.0,Fair,False,False,False,False,False,False,False,False,False,False,False,False,False,Night,75.92388888888888,Very Long
2,2020-02-08 06:12:45,2020-02-22 22:12:43,45.50221,-118.42226,2.992,Pendleton,Umatilla,OR,US/Pacific,KPDT,44.0,34.0,53.0,28.24,10.0,WSW,32.0,0.0,Cloudy / Windy,False,False,False,False,False,False,False,False,False,False,False,False,False,Night,351.99944444444446,Very Long
4,2021-02-05 11:37:00,2021-06-28 23:59:00,38.892088,-77.011617,0.059,Washington,District of Columbia,DC,US/Eastern,KDCA,51.0,51.0,59.0,29.67,10.0,S,9.0,0.0,Fair,False,False,False,False,False,False,False,False,False,False,False,False,False,Day,3444.366666666667,Very Long
2,2022-03-02 17:49:11,2022-03-03 19:39:16,36.136504,-95.912988,0.149,Tulsa,Tulsa,OK,US/Central,KTUL,73.0,73.0,20.0,29.3,10.0,S,7.0,0.0,Partly Cloudy,False,False,False,False,False,False,False,False,False,False,False,False,False,Day,25.834722222222222,Very Long
2,2022-06-22 16:47:43,2022-06-23 17:38:55,36.078468,-95.945982,0.088,Tulsa,Tulsa,OK,US/Central,KRVS,95.0,95.0,43.0,29.35,10.0,SSE,7.0,0.0,Partly Cloudy,False,False,False,False,False,False,False,False,False,False,False,False,False,Day,24.85333333333333,Very Long
2,2020-09-20 04:44:00,2020-09-21 06:24:37,32.476132,-93.795595,0.084,Shreveport,Caddo,LA,US/Central,KSHV,63.0,63.0,78.0,29.88,10.0,NNE,8.0,0.0,Cloudy,False,False,False,False,False,False,False,False,False,False,False,False,False,Night,25.676944444444445,Very Long
3,2020-01-15 03:00:17,2020-01-16 03:28:00,48.999569,-122.735184,0.050000000745058,Blaine,Whatcom,WA,US/Pacific,KBLI,16.0,4.0,81.0,29.76,0.5,NNE,10.0,0.03,Snow,False,False,False,False,False,False,False,False,False,False,False,False,False,Night,24.461944444444445,Very Long
2,2022-02-20 19:09:49,2022-02-21 21:13:36,45.70594668366572,-109.5375645155452,2.631,Reed Point,Stillwater,MT,US/Mountain,KLVM,18.0,1.0,88.0,25.04,0.5,E,21.0,0.0,Snow / Windy,False,False,False,False,False,False,False,False,False,False,False,False,False,Night,26.063055555555554,Very Long
2,2019-02-14 16:12:56,2019-02-19 20:12:00,42.18212800000001,-119.98414,0.286,Adel,Lake,OR,US/Pacific,KLKV,39.2,31.6,65.0,29.33,10.0,SSE,12.7,0.01,Overcast,False,False,False,False,False,False,False,False,False,False,False,False,False,Day,123.98444444444445,Very Long
2,2022-03-03 00:06:00,2022-03-04 01:21:51,28.181830644473163,-81.74410700759056,2.332,Polk City,Polk,FL,US/Eastern,KGIF,61.0,61.0,81.0,30.01,10.0,ENE,3.0,0.0,Fair,False,False,False,False,True,False,False,False,False,False,False,False,False,Night,25.264166666666668,Very Long
4,2021-03-17 15:06:00,2021-03-19 15:56:00,37.339493036092094,-117.0945489401002,1.481,Amargosa Valley,Nye,NV,US/Pacific,KDRA,62.0,62.0,25.0,26.63,10.0,VAR,7.0,0.0,Fair,False,False,False,False,False,False,False,False,False,False,False,False,False,Day,48.833333333333336,Very Long
2,2022-05-13 17:42:00,2022-05-14 19:34:16,32.487251,-93.845268,0.228,Shreveport,Caddo,LA,US/Central,KSHV,89.0,89.0,50.0,29.69,10.0,WNW,7.0,0.0,Partly Cloudy,False,False,False,False,False,False,False,False,False,False,False,False,False,Day,25.871111111111112,Very Long
2,2020-10-28 12:16:30,2020-10-30 02:29:52,25.927492,-80.21419300000002,0.612,Miami,Miami-Dade,FL,US/Eastern,KHWO,86.0,86.0,74.0,30.05,10.0,E,17.0,0.0,Fair,False,False,False,False,False,False,False,False,False,False,False,False,False,Day,38.22277777777778,Very Long
2,2020-12-18 21:59:00,2020-12-19 23:46:36,32.490929,-93.802788,0.346,Shreveport,Caddo,LA,US/Central,KSHV,53.0,53.0,57.0,30.02,10.0,SSE,7.0,0.0,Cloudy,False,False,False,False,False,False,False,False,False,False,False,False,False,Night,25.793333333333333,Very Long
2,2022-01-23 23:35:00,2022-01-25 01:13:11,32.394165,-93.798141,0.215,Shreveport,Caddo,LA,US/Central,KSHV,46.0,43.0,47.0,29.85,10.0,SW,6.0,0.0,Fair,False,False,False,False,False,False,False,False,False,False,False,False,False,Night,25.636388888888888,Very Long
2,2020-11-20 15:44:00,2021-11-20 17:29:00,30.085252,-90.430773,1.037,LA Place,St. John the Baptist,LA,US/Central,KMSY,74.0,74.0,55.0,30.33,10.0,E,15.0,0.0,Fair,False,False,False,False,False,False,False,False,False,False,False,False,False,Day,8761.75,Very Long
4,2022-10-02 23:43:00,2022-10-04 00:45:22,33.668186,-112.200692,0.48,Glendale,Maricopa,AZ,US/Mountain,KDVT,82.0,82.0,35.0,28.27,10.0,NE,6.0,0.0,Fair,False,False,False,False,False,False,False,False,False,False,False,False,False,Night,25.039444444444445,Very Long
2,2020-09-20 17:20:00,2020-09-21 18:12:42,34.493368,-112.006441,7.098,Mayer,Yavapai,AZ,US/Mountain,KPRC,86.0,86.0,18.0,24.99,10.0,WSW,13.0,0.0,Fair,False,False,False,False,False,False,False,False,False,False,False,False,False,Day,24.878333333333334,Very Long
2,2022-12-17 10:43:15,2022-12-18 11:46:00,33.447423,-112.54753999999998,1.034,Buckeye,Maricopa,AZ,US/Mountain,KBXK,48.0,48.0,30.0,29.05,10.0,VAR,3.0,0.0,Fair,False,False,False,False,False,False,False,False,False,False,False,False,False,Day,25.045833333333334,Very Long
2,2021-02-17 05:51:09,2021-02-18 10:33:02,44.294289,-118.955573,0.184,Canyon City,Grant,OR,US/Pacific,KGCD,31.0,23.0,86.0,26.23,10.0,W,8.0,0.0,Cloudy,False,False,False,False,False,False,False,False,False,False,False,False,False,Night,28.698055555555555,Very Long
2,2022-03-07 20:50:09,2022-03-08 22:37:16,36.164881,-95.92249,0.062,Tulsa,Tulsa,OK,US/Central,KTUL,36.0,32.0,62.0,29.56,10.0,ENE,5.0,0.0,Mostly Cloudy,False,False,False,False,False,False,False,False,False,True,False,False,False,Night,25.78527777777778,Very Long
2,2021-05-08 09:19:00,2021-05-09 10:19:30,29.599253000000004,-90.718953,0.017,Houma,Terrebonne,LA,US/Central,KHUM,79.0,79.0,61.0,30.1,7.0,S,7.0,0.0,Partly Cloudy,False,False,False,False,False,False,False,False,False,False,False,True,False,Day,25.008333333333333,Very Long
2,2021-04-06 22:34:30,2021-04-08 07:18:30,34.751539,-114.564444,0.249,Needles,San Bernardino,CA,US/Pacific,KEED,70.0,70.0,6.0,28.9,10.0,WNW,7.0,0.0,Fair,False,False,False,False,False,False,False,False,False,False,False,False,False,Night,32.733333333333334,Very Long
2,2021-06-11 15:14:00,2022-06-11 16:59:00,30.238484144066625,-93.16463112786693,0.2,Lake Charles,Calcasieu,LA,US/Central,KCWF,90.0,90.0,52.0,29.9,10.0,SSW,17.0,0.0,Partly Cloudy,False,False,False,False,False,False,False,False,False,False,False,False,False,Day,8761.75,Very Long
2,2021-04-22 05:42:00,2021-04-23 17:22:10,25.898118,-80.21530600000001,0.258,Miami,Miami-Dade,FL,US/Eastern,KOPF,73.0,73.0,64.0,30.01,10.0,N,10.0,0.0,Cloudy,False,False,False,False,False,False,False,False,True,False,False,True,False,Night,35.669444444444444,Very Long
2,2021-09-15 10:57:00,2022-09-15 12:42:00,30.440074,-91.207832,0.119,Port Allen,West Baton Rouge,LA,US/Central,KBTR,78.0,78.0,93.0,29.73,10.0,E,10.0,0.0,Cloudy,False,False,False,False,False,False,False,False,False,False,False,False,False,Day,8761.75,Very Long
2,2022-11-23 00:01:00,2022-11-24 00:44:00,40.304474,-123.894898,1.182,Myers Flat,Humboldt,CA,US/Pacific,KO87,50.0,50.0,100.0,29.83,1.0,SE,3.0,0.0,Cloudy,False,False,False,False,False,False,False,False,False,False,False,False,False,Night,24.716666666666665,Very Long
2,2022-04-17 18:40:00,2022-04-18 19:57:36,32.500060999999995,-93.758896,0.087,Shreveport,Caddo,LA,US/Central,KDTN,63.0,63.0,93.0,29.7,10.0,NW,5.0,0.0,Cloudy,False,False,False,False,False,False,False,False,False,False,False,True,False,Day,25.293333333333333,Very Long
2,2022-12-21 09:34:07,2022-12-22 11:21:29,36.165613,-95.965928,0.083,Tulsa,Tulsa,OK,US/Central,KTUL,34.0,29.0,85.0,29.52,5.0,ESE,6.0,0.0,Cloudy,False,False,False,False,False,False,False,False,False,False,False,False,False,Day,25.789444444444445,Very Long
2,2021-10-04 00:49:00,2021-10-05 02:04:01,26.972461,-82.06659300000003,0.053,Punta Gorda,Charlotte,FL,US/Eastern,KPGD,75.0,75.0,82.0,29.97,10.0,E,6.0,0.0,Fair,False,False,True,False,False,False,False,False,False,False,False,True,False,Night,25.25027777777778,Very Long
2,2023-01-05 18:20:20,2023-01-06 20:12:34,36.176742,-95.940244,0.028,Tulsa,Tulsa,OK,US/Central,KTUL,46.0,43.0,40.0,29.48,10.0,W,6.0,0.0,Partly Cloudy,True,False,True,False,False,False,False,False,False,False,False,True,False,Night,25.870555555555555,Very Long
2,2022-04-14 18:12:00,2022-04-15 19:32:03,32.466759,-93.771523,0.136,Shreveport,Caddo,LA,US/Central,KSHV,75.0,75.0,27.0,29.83,10.0,E,6.0,0.0,Fair,False,False,False,False,False,False,False,False,False,False,False,False,False,Day,25.33416666666667,Very Long
2,2020-09-10 21:04:40,2020-09-12 15:43:00,44.769898,-122.66084,0.037,Lyons,Linn,OR,US/Pacific,KSLE,57.0,57.0,59.0,29.79,1.0,CALM,0.0,0.0,Smoke,False,False,False,False,False,False,False,False,False,False,False,False,False,Night,42.638888888888886,Very Long
2,2021-02-14 04:15:25,2021-02-15 18:00:00,45.410353,-122.486147,0.004,Damascus,Clackamas,OR,US/Pacific,KTTD,28.0,14.0,75.0,30.02,4.0,ENE,22.0,0.0,Light Snow / Windy,False,False,True,False,False,False,False,False,False,False,False,True,False,Night,37.74305555555556,Very Long
2,2021-03-04 05:00:30,2021-03-05 14:15:44,25.807884,-80.240113,0.147,Miami,Miami-Dade,FL,US/Eastern,KMIA,60.0,60.0,80.0,29.98,10.0,W,8.0,0.0,Cloudy,False,False,False,False,False,False,False,False,True,False,False,False,False,Night,33.25388888888889,Very Long
2,2021-01-27 22:02:00,2021-01-29 03:11:19,32.489227,-93.778755,0.032,Shreveport,Caddo,LA,US/Central,KDTN,41.0,36.0,67.0,30.28,10.0,NNW,8.0,0.0,Fair,False,False,False,False,False,False,False,False,False,False,False,False,False,Night,29.155277777777776,Very Long
2,2020-11-25 03:18:00,2020-11-26 05:16:13,32.583934,-93.829617,0.124,Shreveport,Caddo,LA,US/Central,KDTN,62.0,62.0,90.0,29.69,9.0,SSE,9.0,0.02,Light Rain,False,False,False,False,False,False,False,False,False,False,False,False,False,Night,25.970277777777778,Very Long
4,2020-09-18 01:24:30,2020-09-20 04:44:43,44.115053,-122.459524,1.324,Vida,Lane,OR,US/Pacific,KEUG,63.0,63.0,90.0,29.52,10.0,SSE,6.0,0.21,Thunder in the Vicinity,False,False,False,False,False,False,False,False,False,False,False,False,False,Night,51.33694444444444,Very Long
2,2021-03-03 01:23:30,2021-03-04 20:20:51,33.972252000000005,-118.28268,0.17,Los Angeles,Los Angeles,CA,US/Pacific,KHHR,51.0,51.0,83.0,29.76,10.0,CALM,0.0,0.0,Fair,False,False,False,False,False,False,False,False,False,False,False,False,False,Night,42.95583333333333,Very Long
2,2022-03-01 14:47:00,2022-03-02 16:28:58,32.405937,-93.80069,0.122,Shreveport,Caddo,LA,US/Central,KSHV,71.0,71.0,19.0,29.97,10.0,SW,7.0,0.0,Fair,False,False,False,False,False,False,False,False,False,False,False,False,False,Day,25.699444444444445,Very Long
2,2022-07-08 20:58:00,2022-07-10 01:02:32,32.441992,-93.746375,0.022,Shreveport,Caddo,LA,US/Central,KSHV,94.0,94.0,49.0,29.76,10.0,SW,6.0,0.0,Fair,False,False,False,False,False,False,False,False,False,False,False,False,False,Night,28.075555555555557,Very Long
2,2023-01-14 12:27:00,2023-01-15 13:38:31,34.194928999999995,-118.895007,0.188,Thousand Oaks,Ventura,CA,US/Pacific,KCMA,54.0,54.0,97.0,29.79,2.0,NE,8.0,0.17,Rain,False,False,False,False,False,False,False,False,False,False,False,False,False,Day,25.191944444444445,Very Long
2,2022-06-29 17:01:12,2022-07-01 08:50:49,42.315387,-122.983173,0.23,Jacksonville,Jackson,OR,US/Pacific,KMFR,90.0,90.0,15.0,28.58,10.0,NW,10.0,0.0,Fair,False,False,False,False,False,False,False,False,False,False,False,False,False,Day,39.82694444444444,Very Long
2,2021-07-09 15:25:00,2022-07-09 17:10:00,32.513871,-93.730578,0.0819999999999999,Bossier City,Bossier,LA,US/Central,KDTN,87.0,87.0,51.0,29.87,10.0,SSW,15.0,0.0,Fair,False,False,False,False,False,False,False,False,False,False,False,False,False,Day,8761.75,Very Long
2,2021-02-05 19:51:30,2021-02-07 07:26:00,34.031634999999994,-118.18792,1.024,Los Angeles,Los Angeles,CA,US/Pacific,KCQT,56.0,56.0,72.0,29.8,10.0,CALM,0.0,0.0,Fair,False,False,False,False,False,False,False,False,False,False,False,False,False,Night,35.575,Very Long
2,2022-07-26 00:20:34,2022-07-27 13:25:22,34.014081,-81.280675,0.155,Lexington,Lexington,SC,US/Eastern,KCAE,77.0,77.0,88.0,29.85,10.0,SSW,3.0,0.0,Fair,False,False,False,False,False,False,False,False,False,False,False,False,False,Night,37.08,Very Long
4,2021-01-31 23:38:00,2022-02-01 01:23:00,30.42847,-91.171342,0.882,Baton Rouge,East Baton Rouge,LA,US/Central,KBTR,48.0,42.0,68.0,30.09,10.0,NNW,14.0,0.0,Fair,False,False,False,False,True,False,False,False,False,False,False,False,False,Night,8761.75,Very Long
2,2022-09-05 11:36:00,2022-09-06 12:50:06,36.718106,-121.62257,0.187,Salinas,Monterey,CA,US/Pacific,KSNS,100.0,100.0,16.0,29.67,10.0,CALM,0.0,0.0,Fair,False,False,False,False,False,False,False,False,False,False,False,False,False,Day,25.235,Very Long
2,2022-11-11 23:57:02,2022-11-13 02:02:51,36.08984,-95.924494,0.013,Tulsa,Tulsa,OK,US/Central,KRVS,36.0,31.0,50.0,29.52,10.0,NNW,6.0,0.0,Fair,False,False,False,False,False,False,False,False,False,True,False,False,False,Night,26.096944444444443,Very Long
2,2020-09-08 03:30:50,2020-10-22 14:35:00,44.150578,-122.361634,12.496,Vida,Lane,OR,US/Pacific,KEUG,69.0,69.0,19.0,29.64,10.0,N,16.0,0.0,Cloudy,False,False,False,False,False,False,False,False,False,False,False,False,False,Night,1067.0694444444443,Very Long
2,2022-04-13 15:35:00,2022-04-14 16:52:41,32.499981,-93.724785,0.071,Shreveport,Caddo,LA,US/Central,KDTN,76.0,76.0,87.0,29.49,10.0,WSW,10.0,0.0,Cloudy,False,False,False,False,False,False,False,False,False,False,False,False,False,Day,25.294722222222223,Very Long
2,2021-06-07 08:03:00,2022-06-07 09:48:00,31.266774,-92.49858,0.04,Alexandria,Rapides,LA,US/Central,KAEX,79.0,79.0,88.0,29.82,6.0,SSE,9.0,0.0,Cloudy,False,False,False,False,False,False,False,False,False,False,False,False,False,Day,8761.75,Very Long
4,2016-01-14 20:18:33,2017-01-30 13:25:19,40.630609,-75.470606,0.061,Whitehall,Lehigh,PA,US/Eastern,KABE,31.0,31.0,69.0,29.53,10.0,N,3.0,0.0,Fair,False,False,False,False,False,False,False,False,False,False,False,False,False,Night,9161.112777777778,Very Long
2,2021-02-15 01:49:00,2021-02-16 03:04:26,26.062872,-80.35429599999998,0.016,Fort Lauderdale,Broward,FL,US/Eastern,KHWO,75.0,75.0,90.0,30.01,10.0,SSE,5.0,0.0,Fair,False,False,False,False,False,False,False,False,False,False,False,False,False,Night,25.25722222222222,Very Long
2,2022-11-06 02:13:17,2022-11-07 02:58:21,41.24382377,-105.43998599,5.83,Laramie,Albany,WY,US/Mountain,KLAR,28.0,14.0,69.0,22.77,10.0,W,23.0,0.0,Cloudy / Windy,False,False,False,False,False,False,False,False,False,False,False,False,False,Night,24.75111111111111,Very Long
2,2020-11-13 19:24:33,2020-11-14 23:29:47,40.908148,-74.098114,0.97,Saddle Brook,Bergen,NJ,US/Eastern,KTEB,42.0,42.0,89.0,29.96,10.0,CALM,0.0,0.0,Fair,False,False,False,False,False,False,False,False,False,False,False,False,False,Night,28.087222222222223,Very Long
2,2021-09-08 14:32:00,2021-09-09 15:21:37,36.248999,-109.604667,0.074,Chinle,Apache,AZ,US/Mountain,KRQE,91.0,91.0,11.0,23.62,10.0,CALM,0.0,0.0,Partly Cloudy,False,False,False,False,False,False,False,False,False,False,False,False,False,Day,24.826944444444443,Very Long
2,2022-11-03 04:53:32,2022-11-04 05:48:00,41.63684,-108.240892,1.2819999999999998,Wamsutter,Sweetwater,WY,US/Mountain,KCTD,30.0,25.0,92.0,23.22,10.0,W,5.0,0.0,Cloudy,False,False,False,False,False,False,False,False,False,False,False,False,False,Night,24.907777777777778,Very Long
2,2022-11-22 05:01:17,2022-11-23 06:56:11,36.063324,-95.960992,0.047,Tulsa,Tulsa,OK,US/Central,KRVS,31.0,31.0,96.0,29.6,4.0,CALM,0.0,0.0,Fair,False,False,False,False,False,False,False,False,False,False,False,False,False,Night,25.915,Very Long
2,2022-03-08 16:41:58,2022-03-09 17:29:12,33.238674402078445,-111.3429272169526,3.425,Superior,Pinal,AZ,US/Mountain,KP08,63.0,63.0,13.0,28.42,10.0,NNW,7.0,0.0,Fair,False,False,False,False,False,False,False,False,False,True,False,False,False,Day,24.787222222222223,Very Long
4,2020-09-09 16:10:30,2020-09-12 06:59:00,43.30419600000001,-123.084834,65.308,Glide,Douglas,OR,US/Pacific,KRBG,82.0,82.0,14.0,29.23,0.75,N,8.0,0.0,Haze,False,False,False,False,False,False,False,False,False,False,False,False,False,Day,62.80833333333333,Very Long
2,2023-03-20 14:11:00,2023-03-21 16:00:00,35.532248,-82.85091700000002,0.249,Canton,Haywood,NC,US/Eastern,KAVL,45.0,41.0,25.0,27.99,10.0,N,8.0,0.0,Fair,False,False,False,False,False,False,False,False,False,False,False,False,False,Day,25.816666666666666,Very Long
2,2022-09-12 16:21:41,2022-09-13 17:10:01,36.16075,-95.949297,0.052,Tulsa,Tulsa,OK,US/Central,KTUL,84.0,84.0,26.0,29.26,10.0,CALM,0.0,0.0,Fair,False,False,True,False,False,False,False,False,False,False,False,True,False,Day,24.805555555555557,Very Long
2,2021-10-30 14:35:00,2022-10-30 16:20:00,32.51106619819397,-92.19586014703656,2.718,West Monroe,Ouachita,LA,US/Central,KMLU,70.0,70.0,51.0,29.76,10.0,W,8.0,0.0,Fair,False,False,False,False,False,False,False,False,False,False,False,False,False,Day,8761.75,Very Long
2,2020-10-02 17:45:00,2020-11-01 16:45:00,44.132139,-122.503815,0.382,Vida,Lane,OR,US/Pacific,KEUG,79.0,79.0,58.0,29.65,10.0,N,6.0,0.0,Mostly Cloudy,False,False,False,False,False,False,False,False,False,False,False,False,False,Day,719.0,Very Long
2,2021-09-12 16:41:03,2021-09-13 17:29:09,36.20611,-95.953734,0.06,Tulsa,Tulsa,OK,US/Central,KTUL,89.0,89.0,35.0,29.29,10.0,S,15.0,0.0,Fair,False,False,False,False,False,False,False,False,False,False,False,False,False,Day,24.801666666666666,Very Long
2,2022-11-14 18:15:13,2022-11-15 19:00:16,41.63501859,-108.40464234,1.4880000000000002,Wamsutter,Sweetwater,WY,US/Mountain,KCTD,23.0,13.0,74.0,23.44,10.0,NW,9.0,0.0,Cloudy,False,False,False,False,False,False,False,False,False,False,False,False,False,Night,24.750833333333333,Very Long
2,2021-10-23 10:08:00,2022-10-23 11:53:00,29.95047926888489,-90.08509039835889,0.4320000000000001,New Orleans,Orleans,LA,US/Pacific,KAUD,80.0,80.0,71.0,30.05,10.0,ESE,10.0,0.0,Mostly Cloudy,False,False,False,False,False,False,False,False,False,False,False,False,False,Day,8761.75,Very Long
2,2021-04-06 18:15:00,2021-04-07 21:31:59,32.44569,-93.790016,0.078,Shreveport,Caddo,LA,US/Central,KSHV,80.0,80.0,50.0,29.66,10.0,S,21.0,0.0,Mostly Cloudy / Windy,False,False,False,False,False,False,False,False,False,False,False,False,False,Day,27.283055555555556,Very Long
4,2023-01-17 23:18:00,2023-01-19 02:30:00,35.26167299999999,-80.62299499999997,0.669,Harrisburg,Cabarrus,NC,US/Eastern,KJQF,54.0,54.0,94.0,29.18,5.0,WSW,5.0,0.0,Cloudy,False,False,False,False,False,False,False,False,False,False,False,False,False,Night,27.2,Very Long
2,2020-11-17 13:48:00,2021-11-17 15:33:00,30.469561,-90.867973,2.678,Walker,Livingston,LA,US/Central,KBTR,75.0,75.0,24.0,30.28,10.0,NNE,13.0,0.0,Fair,False,False,False,False,False,False,False,False,False,False,False,False,False,Day,8761.75,Very Long
4,2023-03-20 14:11:00,2023-03-21 16:00:00,35.532248,-82.85091700000002,0.249,Canton,Haywood,NC,US/Eastern,KAVL,45.0,41.0,25.0,27.99,10.0,N,8.0,0.0,Fair,False,False,False,False,False,False,False,False,False,False,False,False,False,Day,25.816666666666666,Very Long
2,2021-05-07 02:30:30,2021-05-08 15:10:18,34.067840999999994,-117.403205,0.416,Bloomington,San Bernardino,CA,US/Pacific,KRAL,59.0,59.0,81.0,29.13,10.0,W,6.0,0.0,Cloudy,False,False,False,False,False,False,False,False,False,False,False,False,False,Night,36.663333333333334,Very Long
2,2020-12-12 02:46:11,2020-12-13 21:36:00,44.943958,-118.996677,0.403,Long Creek,Grant,OR,US/Pacific,KGCD,29.0,29.0,96.0,26.15,4.0,CALM,0.0,0.02,Light Snow,False,False,False,False,False,False,False,False,False,False,False,False,False,Night,42.83027777777778,Very Long
2,2021-02-02 23:33:00,2021-02-04 02:03:07,32.469792,-93.737586,1.442,Shreveport,Caddo,LA,US/Central,KSHV,37.0,37.0,82.0,29.98,10.0,CALM,0.0,0.0,Fair,False,False,False,False,False,False,False,False,False,False,False,False,False,Night,26.501944444444444,Very Long
2,2020-10-22 19:15:00,2020-10-23 20:54:38,32.361652,-93.752021,0.733,Shreveport,Caddo,LA,US/Central,KSHV,80.0,80.0,67.0,29.74,10.0,SE,5.0,0.0,Fair,False,False,False,False,False,False,False,False,False,False,False,False,False,Night,25.660555555555554,Very Long
2,2021-08-05 07:36:13,2021-08-06 08:21:24,40.915797,-96.476545,0.079,Waverly,Lancaster,NE,US/Central,KLNK,70.0,70.0,81.0,28.73,7.0,S,6.0,0.0,Fair,False,False,False,False,False,False,False,False,False,False,False,False,False,Day,24.753055555555555,Very Long
2,2021-10-14 14:50:33,2021-10-15 15:38:00,36.117587,-95.851092,0.013,Tulsa,Tulsa,OK,US/Central,KTUL,69.0,69.0,96.0,29.09,1.0,CALM,0.0,0.01,Fog,False,False,True,False,False,False,False,False,False,True,False,False,False,Day,24.79083333333333,Very Long
2,2020-09-23 22:53:00,2021-09-24 00:38:00,30.196899,-93.245934,0.615,Lake Charles,Calcasieu,LA,US/Central,KLCH,79.0,79.0,89.0,29.7,10.0,SSW,14.0,0.0,Cloudy,False,False,False,False,False,False,False,False,False,False,False,False,False,Night,8761.75,Very Long
2,2021-11-04 18:46:00,2021-11-05 20:06:40,32.42381,-93.707118,0.261,Shreveport,Caddo,LA,US/Central,KBAD,51.0,51.0,55.0,30.04,10.0,CALM,0.0,0.0,Fair,False,False,False,False,False,False,False,False,False,False,False,False,False,Night,25.344444444444445,Very Long
2,2021-01-06 15:55:47,2021-01-07 17:10:56,40.738957,-74.165324,0.259,Newark,Essex,NJ,US/Eastern,KEWR,38.0,27.0,57.0,29.99,10.0,NW,22.0,0.0,Mostly Cloudy / Windy,False,False,True,False,False,False,True,False,False,False,False,True,False,Day,25.2525,Very Long
4,2021-06-06 13:51:17,2021-06-13 23:59:00,40.78209757785425,-74.24417853320004,0.516,West Orange,Essex,NJ,US/Eastern,KCDW,94.0,94.0,30.0,29.83,10.0,VAR,6.0,0.0,Fair,False,False,False,False,True,False,False,False,False,False,False,False,False,Day,178.1286111111111,Very Long
2,2022-05-26 15:17:39,2022-05-27 16:08:02,36.075679,-95.833159,0.017,Tulsa,Tulsa,OK,US/Central,KTUL,61.0,61.0,75.0,29.17,10.0,WNW,15.0,0.0,Cloudy,False,False,True,False,False,False,False,False,False,False,False,True,False,Day,24.83972222222222,Very Long
2,2021-01-03 07:02:47,2021-01-04 08:32:00,39.073466,-94.680594,1.237,Kansas City,Wyandotte,KS,US/Central,KNKA,25.0,25.0,88.0,29.19,1.0,CALM,0.0,0.0,Fog,False,False,False,False,False,False,False,False,False,False,False,False,False,Night,25.486944444444443,Very Long
2,2022-04-22 15:53:16,2022-04-23 16:45:58,35.1530849931948,-114.56743597929685,0.6659999999999999,Bullhead City,Mohave,AZ,US/Mountain,KIFP,66.0,66.0,37.0,29.1,10.0,N,25.0,0.0,Mostly Cloudy / Windy,False,False,True,False,False,False,False,False,False,False,False,True,False,Day,24.878333333333334,Very Long
4,2021-08-25 23:30:00,2021-08-27 00:45:02,33.58890652640539,-110.64722657150914,2.795,Globe,Gila,AZ,US/Mountain,KP08,88.0,88.0,43.0,28.29,10.0,CALM,0.0,0.0,Fair,False,False,False,False,False,False,False,False,False,False,False,False,False,Night,25.250555555555554,Very Long
2,2022-08-30 20:53:32,2022-08-31 21:40:06,36.147872,-95.997998,0.006,Tulsa,Tulsa,OK,US/Central,KTUL,85.0,85.0,57.0,29.32,10.0,E,5.0,0.0,Mostly Cloudy,False,False,True,False,False,False,False,False,False,False,False,True,False,Night,24.77611111111111,Very Long
